address,lat,lon
"FENAIN, 59179, France",50.367,3.29915
"BEAUVOIS, 59157, France",50.37428,2.23351
"TOUQUET, 62520, France",50.5200083,1.5864532
"AMIENS, 80000, France",49.8905599,2.3081986
"VALENCIENNES, 59300, France",50.3579317,3.5234846
"ARRAS, 62000, France",50.291048,2.7772211
"RAMBOUILLET, 78120, France",48.6452851,1.819207
"MADELEINE, 59110, France",50.654401,3.0733338
"BETHUNE, 62400, France",50.5309351,2.6389115
"WASQUEHAL, 59290, France",50.6691577,3.1312447
"OISY, 59195, France",50.3573514,3.439651
"MER, 62600, France",,
"ORCHIES, 59310, France",50.4745024,3.2425313
"ANDLAU, 67140, France",48.3865215,7.4177354
"SAINT, 59350, France",44.8100795,-0.5982853
"HEM, 59510, France",50.6540895,3.1839429
"WAMBRECHIES, 59118, France",50.6861944,3.0521806
"VILLEREAU, 59530, France",50.2556405,3.6633006
"DUNKERQUE, 59240, France",51.0347708,2.3772525
"BERCK, 62600, France",50.4052576,1.5711617
"PLESSIS, 92350, France",48.7811049,2.2619632
"FOSSEUSE, 60540, France",49.2161091,2.1845974
"PONT, 60700, France",47.1777278,5.3147014
"COMPIEGNE, 60200, France",49.4179497,2.8263171
"CHAMBLY, 60230, France",49.1662774,2.2444986
"BREGY, 60440, France",49.0821378,2.8652767
"VILLENEUVE, 59491, France",46.0212677,4.8370135
"CUCQ, 62780, France",50.4865763,1.6246227
"LILLE, 59800, France",50.6365654,3.0635282
"LILLE, 59000, France",50.6365654,3.0635282
"FONTENAY, 94120, France",49.5601439,0.1837398
"THELLE, 60530, France",49.2242307,2.2859429
"RONCQ, 59223, France",50.7531232,3.1209016
"MONS, 59370, France",50.6428547,3.1093516
"PLESSIS, 60330, France",49.0972552,2.7572516
"COMPIÈGNE, 60200, France",49.4179497,2.8263171
"BÉTHUNE, 62400, France",50.5309351,2.6389115
"LUZARCHES, 95270, France",49.1124996,2.4223849
"TEMPLEUVE, 59242, France",50.5326276,3.1740541
"ÉTAPLES, 62630, France",50.5139552,1.6386252
"CAPPY, 80340, France",49.9273871,2.7574371
"ARMENTIERES, 59280, France",50.6867281,2.882169
"ARMENTIÈRES, 59280, France",50.6867281,2.882169
"ABBEVILLE, 80100, France",50.1060835,1.8337029
"SAINS, 62114, France",50.4473282,2.6833883
"CREIL, 60100, France",49.2607914,2.4733771
"TOURCOING, 59200, France",50.7235038,3.1605714
"SAILLY, 59554, France",50.1928353,3.1783132
"PARPEVILLE, 2240, France",49.7851669,3.5464771
"PUISEUX, 60540, France",49.2158213,2.2373641
"HIRSON, 2500, France",49.9203419,4.0837186
"CAMBRONNE, 60290, France",49.3296219,2.4002726
"ARSY, 60190, France",49.4007288,2.6813639
"BOUCONVILLERS, 60240, France",49.1759267,1.9046927
"PÉRENCHIES, 59840, France",50.6679447,2.9744656
"CAUDRY, 59540, France",50.124391,3.410362
"TRITH, 59125, France",50.3245906,3.4845838
"DUNKERQUE, 59640, France",51.0347708,2.3772525
"HAUBOURDIN, 59320, France",50.6093554,2.9864421
"VERSAILLES, 78000, France",48.8035403,2.1266886
"CHÂTEAU, 2400, France",46.4270854,4.6009595
"SAINT, 60740, France",49.221471,2.45158
"STRASBOURG, 67000, France",48.5851074,7.734301
"DUNKERQUE, 59140, France",51.0304157,2.3685474
"WATTIGNIES, 59139, France",50.5878779,3.0511655
"VECQUEMONT, 80800, France",49.8996135,2.4511121
"MARLY, 2120, France",50.3500747,3.5435909
"CIRY, 2220, France",49.3613,3.46174
"SENLIS, 60300, France",49.2065404,2.5846582
"THIERRY, 2400, France",49.0457362,3.4027111
"MARCQ, 59700, France",50.6767018,3.1043032
"BAROEUL, 59700, France",50.6767018,3.1043032
"QUESNOY, 59890, France",50.7121678,3.0008466
"ROUBAIX, 59100, France",50.6915893,3.1741734
"VER, 60950, France",49.1049353,2.6845895
"ÈME, 75007, France",48.8448633,2.3246122
"BERSÉE, 59235, France",50.4822798,3.1471959
"VILLERS, 2600, France",48.3027,6.1742
"DEAUVILLE, 14800, France",49.3595018,0.0746638
"VERNEUIL, 60550, France",49.273664,2.5188916
"CHANTILLY, 60500, France",49.1931736,2.4636686
"FOUILLOY, 80800, France",49.9008958,2.503611
"MOUY, 60250, France",49.3196544,2.3205165
"PONT, 80115, France",47.1777278,5.3147014
"VÉLIZY, 78140, France",48.7816349,2.2248942
"ANDEVILLE, 60570, France",49.2597,2.16852
"ESCHES, 60110, France",49.2173026,2.1673656
"HEILLY, 80800, France",49.9530151,2.5361721
"LONGUEAU, 80330, France",49.8702523,2.3574279
"SAINT, 80680, France",49.837087,2.3136724
"ORMESSON, 94490, France",48.785641,2.5483998
"BOVES, 80440, France",49.8463524,2.3932912
"CRÉPY, 60800, France",50.4725262,2.2011403
"FLEURINES, 60700, France",49.2598706,2.586169
"BARNEVILLE, 50270, France",49.3815306,-1.7528273
"LILLE, 59260, France",50.6365654,3.0635282
"CHAPELLE, 59930, France",,
"ENNETIÈRES, 59320, France",50.634822,2.9412159
"MOUVAUX, 59420, France",50.7029,3.13689
"REIMS, 51100, France",49.2577886,4.031926
"ASCQ, 59650, France",50.6195154,3.1599434
"CHATOU, 78400, France",48.8897044,2.1573695
"BORNEL, 60540, France",49.1975734,2.2069574
"THIEULOY, 60210, France",49.633719,1.9461391
"TORTEQUESNE, 62490, France",50.2895206,3.0389702
"COURCHELETTES, 59552, France",50.3425863,3.060771
"MERIGNIES, 59710, France",50.506087,3.1103335
"RANG, 62180, France",50.4168975,1.6439351
"PLAGE, 62520, France",,
"HALLUIN, 59250, France",50.7826693,3.1249234
"THIONVILLE, 57100, France",49.3579272,6.1675872
"MARLY, 59770, France",50.3500747,3.5435909
"MARQUETTE, 59520, France",50.6760968,3.0647175
"DOUAI, 59500, France",50.3675677,3.0804641
"BILLANCOURT, 92100, France",48.8317043,2.2372367
"WAHAGNIES, 59261, France",50.48797,3.0322175
"CUIGNIÈRES, 60130, France",49.4514167,2.4716631
"LINSELLES, 59126, France",50.737818,3.0794271
"VENETTE, 60280, France",49.4162216,2.8007412
"JOUY, 60240, France",49.3179858,1.9692459
"ROSES, 94240, France",48.7790514,2.3373021
"GANNES, 60120, France",49.5692826,2.4224369
"BARBERY, 60810, France",49.2229793,2.666901
"CHEPOIX, 60120, France",49.6061024,2.3814589
"REMY, 60190, France",49.4398371,2.7086906
"FEUQUIÈRES, 80210, France",50.0608885,1.6088164
"BUIRONFOSSE, 2620, France",49.9661363,3.8352698
"LONG, 2290, France",50.039326,1.9793659
"OIGNIES, 62590, France",50.4643,2.99387
"SAINTE, 60730, France",49.2894965,2.1971001
"MER, 62170, France",50.4638918,1.7631125
"DELINCOURT, 60240, France",49.2431348,1.8325792
"BOHAIN, 2110, France",49.9883475,3.442799
"BONDUES, 59910, France",50.7034622,3.0921638
"MONTATAIRE, 60160, France",49.2561311,2.4342569
"LEERS, 59115, France",50.6792095,3.2399516
"CAMIERS, 62176, France",50.5638,1.61441
"ECURIE, 62223, France",50.3301373,2.7708179
"COLONFAY, 2120, France",49.8588889,3.7133333
"MÉRIGNIES, 59710, France",50.506087,3.1103335
"MESNIL, 93150, France",48.9385489,2.4631476
"MÉLICOCQ, 60150, France",49.4939911,2.8585553
"CHAMANT, 60300, France",49.2192584,2.6128974
"LIBERCOURT, 62820, France",50.4802102,3.0105187
"TROISSEREUX, 60112, France",49.480521,2.0448234
"THOUROTTE, 60150, France",49.4790123,2.8832881
"NIEDERHAUSBERGEN, 67207, France",48.6231002,7.7008489
"BOULOGNE, 62200, France",50.7259985,1.6118771
"ANSTAING, 59152, France",50.6043089,3.1889645
"THUMERIES, 59239, France",50.4725,3.06638
"SUCY, 94370, France",48.7711323,2.5221284
"AVRECHY, 60130, France",49.4482873,2.4271147
"OMER, 62500, France",50.7515771,2.2534183
"SARTILLY, 50530, France",48.7510956,-1.4566857
"GRAVELINES, 59820, France",50.9870697,2.1273118
"D, 59930, France",,
"AMBLAINVILLE, 60110, France",49.2028875,2.1208837
"SORBAIS, 2580, France",49.908441,3.8945448
"DEULEMONT, 59890, France",50.7348047,2.9473109
"VAUCHELLES, 80132, France",50.1026071,1.8888341
"SANNOIS, 95110, France",48.9717267,2.2568296
"NEUILLY, 60530, France",49.2242307,2.2859429
"ÉMÉVILLE, 60123, France",49.2840249,3.0277961
"HÉNONVILLE, 60119, France",49.2081637,2.0522538
"MONTDIDIER, 80500, France",49.6460204,2.570196
"HARDIVILLERS, 60120, France",49.6164088,2.2220681
"QUESNEL, 80118, France",49.7774386,2.6247871
"SAINT, 94100, France",48.8455927,2.4249063
"CHAMPIGNY, 94500, France",48.8072194,2.509751
"VEXIN, 60240, France",49.2625682,1.8821405
"PAUL, 60650, France",49.4223707,1.9820583
"GUIGNECOURT, 60480, France",49.48154,2.12818
"VIARMES, 95270, France",49.125863,2.3693685
"GOMONT, 2120, France",49.4996236,4.1615123
"LAMORLAYE, 60260, France",49.1598,2.42438
"AMENUCOURT, 95510, France",49.1067288,1.6432239
"LAGNY, 60330, France",49.6138706,2.9174984
"LILLE, 59777, France",50.6365654,3.0635282
"CHESSY, 77700, France",48.8798792,2.7658363
"PLAILLY, 60128, France",49.1035319,2.5850308
"ÉRAGNY, 60590, France",49.3148067,1.7753003
"MULHOUSE, 68100, France",47.7421497,7.3431347
"GAMACHES, 80220, France",49.9855234,1.5557176
"BRETEUIL, 60120, France",49.6329792,2.2939649
"MESNIL, 60240, France",49.3018365,1.9876244
"RAINVILLERS, 60155, France",49.4048863,2.0073648
"LONGUEIL, 60150, France",49.886782,0.9559305
"SAINT, 78210, France",48.8002497,2.0660384
"LENS, 62300, France",50.4291723,2.8319805
"VERMAND, 2490, France",49.8767,3.15049
"CHAUMONT, 60240, France",49.2625682,1.8821405
"L, 94240, France",48.8533973,2.3487972
"GOUVIEUX, 60270, France",49.1902,2.41521
"LAMBERSART, 59130, France",50.6477924,3.0223644
"CAMPREMY, 60480, France",49.5713978,2.3105996
"LOZINGHEM, 62540, France",50.5179975,2.4995182
"CINQUEUX, 60940, France",49.3194308,2.5273788
"FLAMENGRIE, 2260, France",50.0047222,3.9211111
"FRANVILLERS, 80800, France",49.9664732,2.5078596
"SAINT, 92210, France",48.8567226,2.1988593
"LAMOTTE, 80150, France",50.188737,1.8273869
"DURY, 80480, France",49.8462392,2.2695287
"SAINT, 62360, France",50.6855506,1.626773
"CAOURS, 80132, France",50.129588,1.881779
"SACLAY, 91400, France",48.7305162,2.172576
"MIRVAUX, 80260, France",50.0027457,2.3949668
"CHAPELLE, 60520, France",,
"ÈME, 75116, France",48.8448633,2.3246122
"BUSSY, 77600, France",49.6248464,2.981811
"ÈME, 75017, France",48.8448633,2.3246122
"SAINT, 93400, France",48.9244726,2.3601325
"ARNOUVILLE, 95400, France",48.9892126,2.4202824
"ORLY, 94310, France",48.7431683,2.402391
"STAINS, 93240, France",48.9565669,2.3825154
"ISSY, 92130, France",48.8199521,2.259238
"ÈME, 75019, France",48.8650525,2.3975667
"SARTROUVILLE, 78500, France",48.9409016,2.1585037
"VILLENEUVE, 92390, France",45.0835468,-0.6280356
"CLAMART, 92140, France",48.8003835,2.2630238
"VÉSINET, 78110, France",48.894254,2.1347291
"VANVES, 92170, France",48.8212037,2.289259
"SEMBLANÇAY, 37360, France",47.4989788,0.5783512
"ÈME, 75011, France",48.8650525,2.3975667
"ÈME, 75015, France",48.8448633,2.3246122
"BEZONS, 95870, France",48.9250016,2.2105491
"COLOMBES, 92700, France",48.9227298,2.2543631
"CHOISY, 94600, France",48.7630238,2.4093664
"BRIE, 94370, France",49.6013889,3.4833333
"LIMEIL, 94450, France",48.7489857,2.4809129
"CAUX, 76560, France",49.752549,0.8799089
"JOUY, 95280, France",48.1671916,2.975115
"PONT, 94340, France",47.1777278,5.3147014
"MARNE, 94430, France",48.961264,4.3122436
"IVRY, 94200, France",48.8122302,2.3872525
"ÈME, 75005, France",48.8448633,2.3246122
"CHAMBOURCY, 78240, France",48.9058999,2.0396454
"CONFLANS, 78700, France",48.9938791,2.0949768
"OUEN, 93400, France",48.911729,2.334267
"PLAISIR, 78370, France",48.817399,1.9476363
"NOISY, 93160, France",48.8492238,2.5524906
"CHARTRES, 28000, France",48.4438601,1.4881434
"PANTIN, 93500, France",48.8965023,2.4019804
"ROSNY, 93110, France",48.8716626,2.4875193
"VILLACOUBLAY, 78140, France",48.7809496,2.1900052
"VESINET, 78110, France",48.894254,2.1347291
"YVETTE, 91190, France",48.7018823,2.134529
"MESNIL, 78600, France",48.9396822,2.128842
"SAINT, 51530, France",49.2586063,3.9941791
"CHÂTENAY, 92290, France",45.3211,5.22884
"RUEIL, 92500, France",48.87778,2.1802832
"CHEVILLY, 94550, France",48.0260305,1.8739814
"ASNIÈRES, 92600, France",48.9105948,2.2890454
"MONTROUGE, 92120, France",48.8188544,2.3194375
"TREVISE, 94420, France",48.8091528,2.5732616
"GENNEVILLIERS, 92230, France",48.9254221,2.2940122
"OBERSAASHEIM, 68600, France",47.9907928,7.5563788
"SEINE, 92600, France",48.9105948,2.2890454
"DAMPMART, 77400, France",48.8852184,2.7355279
"BRY, 94360, France",50.3165406,3.6826292
"SAINT, 78100, France",48.8979045,2.0956035
"CLICHY, 92110, France",48.9026,2.30551
"ANTONY, 92160, France",48.753613,2.2958034
"COURBEVOIE, 92400, France",48.8953328,2.2561602
"ÈME, 75012, France",48.8650525,2.3975667
"ÈME, 75010, France",48.8650525,2.3975667
"ALFORTVILLE, 94140, France",48.8051624,2.4197113
"CAEN, 14000, France",49.1813403,-0.3635615
"ÈME, 75016, France",48.8448633,2.3246122
"VAIRES, 77360, France",48.8733776,2.6396951
"GOUVERNES, 77400, France",48.8598385,2.6927897
"HOENHEIM, 67800, France",48.6212867,7.7554925
"THORIGNY, 77400, France",48.8841856,2.7115737
"NEUILLY, 92200, France",48.884683,2.2695658
"BLANC, 93150, France",,
"MANTES, 78200, France",48.9891971,1.7140683
"GAGNY, 93220, France",48.8853743,2.5358323
"SAINT, 78860, France",48.8476304,2.0287635
"DOMONT, 95330, France",49.0285536,2.3278097
"CRÉTEIL, 94000, France",48.7771486,2.4530731
"ÈME, 75009, France",48.8448633,2.3246122
"ÈME, 75018, France",48.8448633,2.3246122
"ÈME, 75020, France",48.8650525,2.3975667
"NANTERRE, 92000, France",48.8924273,2.2071267
"ANDRESY, 78570, France",48.9821445,2.0610573
"POISSY, 78300, France",48.9274192,2.0426301
"VILLEJUIF, 94800, France",48.7921098,2.3633048
"GRAND, 93160, France",48.386104,5.4866253
"BOBIGNY, 93000, France",48.906387,2.4452231
"ÈME, 75013, France",48.8448633,2.3246122
"BELBEUF, 76240, France",49.3880756,1.1428248
"SÈVRES, 92370, France",48.8247407,2.2127083
"MAURECOURT, 78780, France",48.9975159,2.0625234
"AUBERVILLIERS, 93300, France",48.9146078,2.3821895
"ÈME, 75002, France",48.8448633,2.3246122
"MALAKOFF, 92240, France",48.8211559,2.3019814
"MONTFORT, 78490, France",43.3684225,-0.8465779
"VIERZON, 18100, France",47.2217489,2.0691421
"SÈVRES, 92310, France",48.8247407,2.2127083
"VILLEMOMBLE, 93250, France",48.881886,2.5076181
"SAINT, 94410, France",48.8455927,2.4249063
"GONESSE, 95500, France",48.9863555,2.4500537
"PALAISEAU, 91120, France",48.7144587,2.2453842
"STEINBRUNN, 68440, France",47.6626861,7.3479226
"CHAVILLE, 92370, France",48.8086297,2.1882897
"MOULINEAUX, 92130, France",49.3418677,0.9647213
"ER, 75001, France",,
"SAINT, 93200, France",48.9455243,2.3625253
"DRAVEIL, 91210, France",48.6851514,2.4083576
"PUTEAUX, 92800, France",48.8841522,2.2368863
"CERGY, 95800, France",49.0527528,2.0388736
"VERJUX, 71590, France",46.8784801,4.9644317
"GARENNE, 92250, France",,
"VITRY, 94400, France",48.7876,2.39164
"ÈME, 75008, France",48.8448633,2.3246122
"ARPAJON, 91290, France",48.5902899,2.2477303
"BUCQUOY, 62116, France",50.140295,2.7094849
"CELLE, 78170, France",48.8478753,2.136145
"SEINE, 95530, France",48.9740461,2.178345
"FERRIERE, 77330, France",48.7620904,2.6719421
"ÈME, 75006, France",48.8448633,2.3246122
"LEVALLOIS, 92300, France",48.892956,2.2881683
"ÈME, 75014, France",48.8448633,2.3246122
"ALBERT, 80300, France",50.0018022,2.6509223
"JOUY, 78350, France",48.1671916,2.975115
"VAUCRESSON, 92420, France",48.8392676,2.1575981
"VINCENNES, 94300, France",48.8474508,2.4396714
"CHAPELLE, 77760, France",,
"BOIS, 78390, France",45.4888007,-0.5994643
"MASSY, 91300, France",48.730158,2.2766735
"SARRALBE, 57430, France",48.9998765,7.0299169
"LONGJUMEAU, 91160, France",48.6943793,2.2953297
"SCHILTIGHEIM, 67300, France",48.6047148,7.7484488
"ROSNY, 78710, France",49.001733,1.6280317
"ÈME, 75004, France",48.8448633,2.3246122
"PERREUX, 94170, France",47.85697,3.1641014
"AMÉCOURT, 27140, France",49.378555,1.7318822
"ANTONY, 92202, France",48.753613,2.2958034
"MONTIGNY, 95370, France",49.4592915,0.9999358
"ARGENTEUIL, 95100, France",48.9479069,2.2481797
"DRANCY, 93700, France",48.9229803,2.4455201
"MALABRY, 92290, France",48.7715794,2.2516485
"VOISINS, 78960, France",48.7586786,2.0509674
"ROUEN, 76000, France",49.4452254,1.0913423
"MONTÉVRAIN, 77144, France",48.8741286,2.748344
"CACHAN, 94230, France",48.7945413,2.3340758
"LIPSHEIM, 67640, France",48.490003,7.6644772
"SERRIS, 77700, France",48.8567,2.7855615
"PUISEUX, 95380, France",49.5924913,4.5417488
"GARCHES, 92380, France",48.8437486,2.1853699
"CHENÔVE, 21300, France",47.2932,5.00308
"GENTILLY, 94250, France",48.8153656,2.3483549
"TREMBLAY, 93290, France",48.9802035,2.5589558
"CHAMPAGNE, 95660, France",45.831944,-0.906667
"MEAUX, 77100, France",48.9582708,2.8773541
"AVERDON, 41330, France",47.6844003,1.2943824
"BAGNEUX, 92220, France",48.795056,2.3027323
"NEUILLY, 93360, France",48.9321383,1.4209125
"MARLY, 78160, France",50.3500747,3.5435909
"TRAPPES, 78190, France",48.7760957,1.9988356
"JOINVILLE, 94340, France",48.4433253,5.1377537
"FONTAINE, 14790, France",48.21322,4.71393
"ROMAINVILLE, 93230, France",48.8852958,2.4358326
"FRANQUEVILLE, 76520, France",49.8108333,3.8102778
"SURESNES, 92150, France",48.8709053,2.2255727
"SOISY, 95230, France",48.9875044,2.3002885
"KINGERSHEIM, 68260, France",47.7923002,7.3386856
"THIVERVAL, 78850, France",48.8495377,1.9169094
"CORMEILLES, 95240, France",49.6390754,2.1917033
"BLODELSHEIM, 68740, France",47.8861417,7.5393029
"BOULOGNE, 92100, France",48.8356649,2.240206
"CERISY, 50210, France",49.0249556,-1.2792487
"SEINE, 94400, France",48.7876,2.39164
"SAINT, 50810, France",49.1121426,-1.0347135
"MONTFERMEIL, 93370, France",48.8992679,2.5660399
"DÉVILLE, 76250, France",49.4695338,1.0495889
"TOUQUES, 14800, France",49.343477,0.1016715
"ÉPRON, 14610, France",49.2227442,-0.3710407
"TROUVILLE, 14360, France",49.3679823,0.0809113
"LISIEUX, 14100, France",49.1460831,0.2255168
"HAVRE, 76600, France",49.4966096,0.1294067
"DUCLAIR, 76480, France",49.482563,0.8754968
"VILLERS, 14640, France",49.3214437,-0.0052517
"FLEURY, 14123, France",50.42199,2.25386
"ROUEN, 76100, France",49.4452254,1.0913423
"BRETAGNE, 35120, France",,
"MONDEVILLE, 14120, France",49.1770906,-0.3200702
"ANDELYS, 27700, France",49.2469193,1.4215534
"BOIS, 76230, France",45.4888007,-0.5994643
"COURSEULLES, 14470, France",49.3203447,-0.452157
"BIHOREL, 76420, France",49.4543405,1.1159756
"HONFLEUR, 14600, France",49.4197222,0.2338889
"GRANVILLE, 50400, France",48.8376296,-1.5959177
"IFS, 14123, France",49.1380679,-0.3496385
"SAINT, 77310, France",48.5644887,2.5426604
"IVRY, 27540, France",48.8852099,1.4579416
"BERNAY, 27300, France",49.0902278,0.5989157
"MONT, 76130, France",,
"MER, 14910, France",,
"VERNON, 27200, France",49.0932008,1.4857205
"TOURVILLE, 76400, France",49.713794,0.3997245
"OISSEL, 76350, France",49.3424375,1.0957098
"SAINT, 76490, France",49.5300735,0.7678025
"HARENGÈRE, 27370, France",49.2318166,0.9969802
"GISORS, 27140, France",49.2789504,1.777826
"YVETOT, 76190, France",49.6179384,0.7538866
"SEINE, 95220, France",48.9898588,2.166162
"MESNIL, 76240, France",49.4119899,1.1391732
"SAINT, 27450, France",49.2990471,0.546095
"SAINT, 78470, France",48.7028614,2.0709476
"SOTTEVILLE, 76300, France",49.4128474,1.1023879
"PONT, 14130, France",47.1777278,5.3147014
"COTENTIN, 50100, France",49.6333457,-1.6207141
"GAILLON, 27600, France",49.1605604,1.3336126
"PLAGE, 14810, France",49.2788,-0.2036861
"BENERVILLE, 14910, France",49.3427767,0.0371362
"SAINT, 76510, France",49.8292585,1.291434
"BAYEUX, 14400, France",49.2764624,-0.7024738
"CHERBOURG, 50120, France",49.6425343,-1.6249565
"CHERBOURG, 50100, France",49.6334628,-1.6211702
"DONVILLE, 50350, France",48.8488845,-1.5813204
"NOTRE, 76960, France",49.4883509,1.0487027
"BLANGY, 14130, France",49.245,0.2744444
"EGLISE, 50330, France",49.6947006,-1.4083333
"COUTURE, 27750, France",48.898003,1.4059381
"RIVIÈRE, 14600, France",,
"SEINE, 92200, France",48.884683,2.2695658
"PACY, 27120, France",49.0141954,1.38128
"ÉVRECY, 14210, France",49.0999195,-0.5011439
"MAROMME, 76150, France",49.476737,1.0308208
"MER, 14160, France",,
"SAINT, 37540, France",47.4187238,0.6665746
"SAUSSAYE, 27370, France",49.2555228,0.9787365
"VAL, 27100, France",49.2838807,1.2210511
"BARQUET, 27170, France",49.0448459,0.85786
"MESNIL, 27330, France",48.9336237,0.5687229
"SAINT, 27950, France",49.110737,1.4314333
"ISNEAUVILLE, 76230, France",49.4988394,1.1416384
"FORET, 92360, France",48.7876528,2.2281028
"SAUVEUR, 14600, France",49.4076106,0.2716348
"VIRE, 14500, France",48.8385198,-0.8893293
"LION, 14780, France",,
"BARVILLE, 76450, France",49.7723369,0.6406993
"CARTERET, 50270, France",49.3778728,-1.7869507
"OCTEVILLE, 50100, France",49.6254784,-1.6448063
"THIBERVILLE, 27230, France",49.1390278,0.4552511
"PETIT, 76650, France",49.3749799,1.0274071
"BACILLY, 50530, France",48.7006867,-1.441434
"LOUVIGNY, 14111, France",49.1565383,-0.3937312
"ROCQUEMONT, 76680, France",49.6034549,1.2823533
"GUERN, 56310, France",48.0301914,-3.0913751
"HAYE, 50250, France",49.2910526,-1.545089
"CABOURG, 14390, France",49.2934373,-0.1155085
"MAISY, 14450, France",49.381222,-1.0556758
"BOURGTHEROULDE, 27520, France",49.2992811,0.878065
"ROGER, 27170, France",,
"CARENTAN, 50500, France",49.2947659,-1.2523119
"VILLE, 37700, France",,
"EURE, 27120, France",49.0756358,0.9651829
"DARNÉTAL, 76160, France",49.4449083,1.1519145
"RISLE, 27170, France",49.0455744,0.8015148
"ORLEANS, 45000, France",47.9083827,1.9049331
"COLOMBELLES, 14460, France",49.2041204,-0.2972472
"HAVRE, 76620, France",49.4989079,0.1112116
"MER, 14360, France",,
"DOUVRES, 14440, France",49.2963189,-0.3752057
"DOUDEVILLE, 76560, France",49.7229361,0.7835886
"MUE, 14740, France",49.1962872,-0.5424107
"LOIRE, 45360, France",,
"COUDRES, 27220, France",48.8644335,1.2470672
"MONCHY, 76260, France",49.9951444,1.4515016
"LOUVIERS, 27400, France",49.2157245,1.1646335
"EVREUX, 27000, France",49.0268903,1.1510164
"ARGENCES, 14370, France",49.1270417,-0.1640626
"MONTVILLE, 76710, France",49.5479845,1.0750949
"SAINT, 76840, France",49.4329229,0.9701802
"SEINE, 78740, France",,
"L, 76280, France",49.4983134,0.1132065
"BUCHY, 76750, France",49.5843382,1.3583539
"VALLIQUERVILLE, 76190, France",49.614002,0.6835353
"EURE, 27530, France",49.0756358,0.9651829
"SCEAUX, 92330, France",48.7790592,2.2886619
"ROUTOT, 27350, France",49.3785626,0.7323269
"BUEIL, 27730, France",48.9301195,1.4415715
"VIEUX, 76160, France",,
"BRETTEVILLE, 14760, France",49.1655808,-0.4176272
"MER, 14830, France",,
"CAUX, 76730, France",49.7853769,0.9996404
"SAINT, 76800, France",49.3771726,1.1095372
"TOCQUEVILLE, 50330, France",49.6699118,-1.3380659
"SERQUIGNY, 27470, France",49.1094531,0.7143709
"ETREPAGNY, 27150, France",49.3065762,1.6110749
"EURE, 27780, France",49.0756358,0.9651829
"BOIS, 93600, France",45.6181402,0.318919
"ÉZY, 27530, France",48.8657529,1.4198704
"ELBEUF, 76500, France",49.2871086,1.0108998
"ROUVRAY, 76800, France",49.3831,1.09163
"MER, 14640, France",,
"LANESTER, 56600, France",47.7639726,-3.3444489
"YERVILLE, 76760, France",49.6688705,0.8974236
"MONTIVILLIERS, 76290, France",49.5457966,0.1920827
"BEAUMONT, 27170, France",,
"MONTOIR, 44550, France",47.3285909,-2.1543171
"ÉQUEMAUVILLE, 14600, France",49.3941521,0.2075588
"AGON, 50230, France",49.0426274,-1.5767053
"HAUTEVILLE, 50590, France",49.8783333,3.5230556
"FONTAINE, 76290, France",45.1950183,5.6869624
"COURCELLES, 27940, France",49.1828874,1.3590126
"PRÉAUX, 76160, France",49.4916208,1.216027
"HOULGATE, 14510, France",49.3008653,-0.0751662
"MER, 14510, France",,
"ÉTRÉPAGNY, 27150, France",49.3065762,1.6110749
"AGNEAUX, 50180, France",49.1165234,-1.114372
"MOTEL, 27710, France",48.785536,1.3626443
"ACQUIGNY, 27400, France",49.17231,1.178352
"MAISONS, 14400, France",49.3188308,-0.7568691
"ADRESSE, 76310, France",49.5052482,0.0805655
"SAINT, 27220, France",48.8938043,1.2464751
"MERVILLE, 14810, France",49.2730829,-0.1981897
"PEILLAC, 56220, France",47.7132565,-2.2185625
"BOLBEC, 76210, France",49.5739091,0.4742448
"CANY, 76450, France",49.7868965,0.6358291
"ECHAUFFOUR, 61370, France",48.740133,0.38703
"BRANVILLE, 14430, France",49.2730972,0.0256631
"SAINT, 14280, France",49.214884,-0.4017716
"FRESQUIENNES, 76570, France",49.5633687,1.0047394
"TRAIT, 76580, France",49.4819151,0.8087513
"SAINT, 50380, France",48.815813,-1.5708656
"AUBEVOYE, 27940, France",49.177214,1.3331944
"SOTTEVILLE, 50340, France",49.5396722,-1.7551133
"NEUBOURG, 27110, France",49.1496553,0.9044712
"BOUILLE, 76530, France",49.3521374,0.9302786
"DIVES, 14160, France",49.2866417,-0.1001559
"BRICQUEBEC, 50260, France",49.4717312,-1.6321305
"ARTANNES, 37260, France",47.2729908,0.5996983
"GRUCHET, 76210, France",49.5569416,0.4866308
"BAILLEUL, 27920, France",50.7396668,2.7349286
"SACQUENVILLE, 27930, France",49.082819,1.0743166
"AIGLE, 61300, France",48.7651713,0.6278039
"OUISTREHAM, 14150, France",49.2761243,-0.258479
"ROCQUENCOURT, 78150, France",48.833333,2.1063004
"LORIENT, 56100, France",47.7477336,-3.3660907
"THORIGNE, 35235, France",48.1535233,-1.5800238
"BREST, 29200, France",48.3905283,-4.4860088
"SAINT, 22000, France",48.5141826,-2.7638991
"AUDIERNE, 29770, France",48.0231226,-4.5397715
"SAINT, 35230, France",48.105314,-1.6673866
"FAOUËT, 56320, France",48.0324826,-3.4898391
"PACÉ, 35740, France",48.1465726,-1.7728997
"RELECQ, 29480, France",48.4075514,-4.3965573
"RENNES, 35000, France",48.1030752,-1.6726296
"DINARD, 35800, France",48.6320379,-2.0580178
"SAINT, 35400, France",48.6338625,-2.0305438
"MORDELLES, 35310, France",48.0733304,-1.8485204
"CRAC, 56950, France",47.6166941,-3.0011326
"CANCALE, 35260, France",48.6771721,-1.8506953
"SARZEAU, 56370, France",47.5275161,-2.7684537
"PONTS, 49130, France",48.7023347,-1.3460676
"GUIDEL, 56520, France",47.7894226,-3.4914955
"LOUANNEC, 22700, France",48.7939968,-3.4119987
"PERROS, 22700, France",48.8151133,-3.4394662
"NANTES, 44000, France",,
"PALAIS, 56360, France",,
"FOUILLARD, 35235, France",48.1535233,-1.5800238
"RHEU, 35650, France",48.1006715,-1.7937675
"ARZON, 56640, France",47.5478899,-2.8916167
"MALO, 35400, France",48.649518,-2.0260409
"CHANTEPIE, 35135, France",48.088155,-1.6171482
"PONT, 35131, France",47.1777278,5.3147014
"VERNOIL, 49390, France",47.3874403,0.0818498
"LARMOR, 56260, France",47.7147553,-3.376302
"PLOEMEUR, 56270, France",47.7354591,-3.4270534
"LANDEVANT, 56690, France",47.7636187,-3.1194205
"PLEURTUIT, 35730, France",48.5815,-2.05912
"CONCARNEAU, 29900, France",47.8757017,-3.9223889
"CHOLET, 49300, France",47.0617293,-0.8801359
"PLÉRIN, 22190, France",48.5348817,-2.7695752
"MOËLAN, 29350, France",47.8133996,-3.6309833
"VANNES, 56000, France",47.6586772,-2.7599079
"SABLES, 85180, France",,
"THORIGNÉ, 35235, France",48.1535233,-1.5800238
"QUIBERON, 56170, France",47.4874,-3.12152
"SENE, 56860, France",,
"CESSON, 35510, France",48.5624381,2.6021145
"LAMBALLE, 22400, France",48.4624462,-2.5165023
"MUZILLAC, 56190, France",47.5538771,-2.4830285
"MONTGERMONT, 35760, France",48.1557367,-1.7162062
"RENNES, 35700, France",48.105314,-1.6673866
"FOUGÈRES, 35300, France",48.3503362,-1.1958526
"ACIGNÉ, 35690, France",48.1334474,-1.5341182
"MONTFORT, 35310, France",43.3684225,-0.8465779
"PLUMELEC, 56420, France",47.8378469,-2.6396508
"RENNES, 35200, France",48.105314,-1.6673866
"MÉZIÈRE, 35520, France",48.2193772,-1.7557922
"ERQUY, 22430, France",48.6286582,-2.4642309
"QUEVERT, 22100, France",48.4628,-2.08416
"ROC, 56460, France",,
"PLAUDREN, 56420, France",47.7788407,-2.693565
"BETTON, 35830, France",48.1817122,-1.6414898
"AVRILLÉ, 49240, France",47.5045657,-0.5956539
"HENNEBONT, 56700, France",47.8058026,-3.2751174
"ERDEVEN, 56410, France",47.6417056,-3.1557523
"QUIMPER, 29000, France",47.9960325,-4.1024782
"MANS, 72000, France",,
"LOCMINÉ, 56500, France",47.8874274,-2.8362402
"COURS, 56230, France",,
"GOUAREC, 22570, France",48.2273858,-3.1803547
"SULARD, 22450, France",48.7713537,-3.3697774
"D, 49250, France",,
"BEAUCÉ, 35133, France",48.3390316,-1.1555522
"PLOUHA, 22580, France",48.6755038,-2.928296
"SÉRENT, 56460, France",47.8225319,-2.5053307
"PAIMPOL, 22500, France",48.7794818,-3.0484022
"LANVELLEC, 22420, France",48.619553,-3.537898
"MONTERBLANC, 56250, France",47.7438832,-2.6798827
"SAINT, 44600, France",44.8100795,-0.5982853
"GRAND, 56390, France",48.386104,5.4866253
"VEZIN, 35132, France",48.1195379,-1.75711
"CHÂTEAUBOURG, 35220, France",48.1108554,-1.3982411
"LANDÉBIA, 22130, France",48.513966,-2.336892
"DINAN, 22100, France",48.4539775,-2.047687
"MALANSAC, 56220, France",47.67745,-2.29494
"MÉAUGON, 22440, France",48.4997094,-2.8399002
"ANGERS, 49000, France",47.4739884,-0.5515588
"PONT, 29120, France",47.1777278,5.3147014
"PLONÉIS, 29710, France",48.0158575,-4.2078869
"VITRE, 35500, France",48.1244503,-1.214331
"SAINT, 44310, France",47.0170404,-1.6086367
"GUILVINEC, 29730, France",47.7995146,-4.2858256
"VITRÉ, 35500, France",48.1244503,-1.214331
"CADEN, 56220, France",47.630573,-2.2867806
"ANGERS, 49100, France",47.4739884,-0.5515588
"RIVES, 35140, France",45.3501289,5.5047411
"GUILERS, 29820, France",48.4244717,-4.5583284
"LANNION, 22300, France",48.7322183,-3.4587994
"PLÉNEUF, 22370, France",48.5839267,-2.535957
"SAVENAY, 44260, France",47.3592304,-1.9421244
"CROZON, 29160, France",48.2463989,-4.4894463
"LIFFRE, 35340, France",48.2145992,-1.5059748
"ROMAGNÉ, 35133, France",48.3421592,-1.2754346
"MER, 29350, France",,
"BENODET, 29950, France",47.8746373,-4.1109828
"TREBEURDEN, 22560, France",48.7694756,-3.5626633
"PONTIVY, 56300, France",48.0647729,-2.9675702
"PLOUGRESCANT, 22820, France",48.8412155,-3.2284425
"BOHAL, 56140, France",47.78095,-2.43776
"BAIN, 35470, France",47.8414377,-1.6852229
"SAINT, 35760, France",48.105314,-1.6673866
"THEIX, 56450, France",47.6350665,-2.6474422
"GUIREC, 22700, France",48.8151133,-3.4394662
"TURBALLE, 44420, France",47.3468646,-2.5080068
"MATIGNON, 22550, France",48.5968982,-2.2922438
"PLOERMEL, 56800, France",47.9323786,-2.39808
"PLOUGONVELIN, 29217, France",48.3415116,-4.7192399
"ERIGNE, 49610, France",47.3992042,-0.5361153
"PLOUHINEC, 29780, France",48.0153626,-4.4877863
"SAINT, 29290, France",44.8100795,-0.5982853
"TRÉBEURDEN, 22560, France",48.7694756,-3.5626633
"PLESCOP, 56890, France",47.6980235,-2.8062224
"CAVAN, 22140, France",48.6721731,-3.3457423
"KERNASCLÉDEN, 56540, France",48.006571,-3.320242
"CARNAC, 56340, France",47.5836629,-3.0794428
"TALMONT, 85440, France",46.4666884,-1.618977
"GUINGAMP, 22200, France",48.5618483,-3.1502007
"KERVIGNAC, 56700, France",47.7635947,-3.2388668
"CHATEAUGIRON, 35410, France",48.0423764,-1.500912
"SABLES, 85100, France",46.5001552,-1.7925663
"SAINT, 22410, France",48.6493485,-2.8403237
"PLOUAGAT, 22170, France",48.5310144,-2.9888038
"PLONÉVEZ, 29550, France",48.1267385,-4.2201939
"LEGÉ, 44650, France",46.8867571,-1.5979446
"PÉNESTIN, 56760, France",47.4832631,-2.4756797
"POULIGUEN, 44510, France",47.2714307,-2.4310663
"TROGUÉRY, 22450, France",48.7543013,-3.2250158
"BADEN, 56870, France",47.6199988,-2.9184744
"TRÉLIVAN, 22100, France",48.4321718,-2.1193713
"SAINT, 56510, France",47.5208871,-3.1386904
"BODOU, 22560, France",48.7732657,-3.5187179
"SAINT, 56890, France",47.6896975,-2.7304712
"ELVEN, 56250, France",47.7325736,-2.5905844
"CHEVAIGNÉ, 35250, France",48.2120161,-1.6303916
"SAINT, 56470, France",47.5730716,-3.0007096
"SEICHES, 49140, France",47.5765866,-0.3619433
"NOYALO, 56450, France",47.6033779,-2.6768556
"SAINT, 35290, France",44.8100795,-0.5982853
"ROSTRENEN, 22110, France",48.237574,-3.316142
"PLOUGOUMELEN, 56400, France",47.6525123,-2.9175888
"ROSPORDEN, 29140, France",47.9592684,-3.8278459
"TELOCHE, 72220, France",47.887679,0.2698822
"PORDIC, 22590, France",48.5695573,-2.8189686
"GUIPAVAS, 29490, France",48.4346366,-4.400979
"PLOUGASTEL, 29470, France",48.3742317,-4.369679
"LIFFRÉ, 35340, France",48.2145992,-1.5059748
"PIPRIAC, 35550, France",47.8088832,-1.9462224
"ROMILLÉ, 35850, France",48.2153539,-1.89245
"CAUDAN, 56850, France",47.81081,-3.3404445
"CHAPELLE, 35520, France",,
"BELZ, 56550, France",47.6759681,-3.1687227
"RETZ, 44320, France",47.2066441,-2.0444751
"SAINT, 56730, France",47.4998915,-2.8397233
"PLUMÉLIAU, 56930, France",47.96848,-2.989301
"PONTCHÂTEAU, 44160, France",47.4373374,-2.0880233
"PORNICHET, 44380, France",47.2613293,-2.3364238
"CHALLANS, 85300, France",46.8478091,-1.877431
"COMBRIT, 29120, France",47.8873445,-4.1563101
"NANTES, 44300, France",,
"BAULE, 44500, France",47.81046,1.67055
"SAINT, 44800, France",47.2405058,-1.640665
"NANTES, 44200, France",,
"NANTES, 44100, France",,
"ORVAULT, 44700, France",47.2711217,-1.623206
"ARANCOU, 64270, France",43.4448913,-1.0506473
"REZÉ, 44400, France",47.1905456,-1.5695287
"D, 85100, France",,
"LAVAL, 53000, France",48.0706687,-0.7734022
"PÉRIGUEUX, 24000, France",45.1840214,0.7160392
"CLISSON, 44190, France",47.0877218,-1.2817422
"TRELAZE, 49800, France",47.4460674,-0.4652452
"BOUGUENAIS, 44340, France",47.179301,-1.6233691
"GUERANDE, 44350, France",47.3282126,-2.4298014
"MONT, 40000, France",,
"AVRILLE, 49240, France",47.5045657,-0.5956539
"SAINT, 85800, France",46.6965989,-1.9419542
"LUCON, 85400, France",46.4555953,-1.1645595
"D, 49480, France",,
"SAINT, 85270, France",46.716647,-1.9495624
"ESCOUBLAC, 44500, France",47.2947121,-2.3595858
"LOHITZUN, 64120, France",43.2764042,-0.9774941
"PORNIC, 44210, France",47.1152695,-2.1040102
"GUÉRANDE, 44350, France",47.3282126,-2.4298014
"SOUSTONS, 40140, France",43.75079,-1.32955
"CROISIC, 44490, France",47.2933971,-2.5094404
"VERTOU, 44120, France",47.1685211,-1.4722242
"CARQUEFOU, 44470, France",47.2971979,-1.4921233
"MONTAGNE, 44620, France",,
"ERDRE, 44240, France",47.2996846,-1.5518632
"PELLERIN, 44640, France",47.1999241,-1.7550364
"COUËRON, 44220, France",47.2115054,-1.7271466
"HERBIERS, 85500, France",46.871379,-1.0150646
"YON, 85000, France",46.6705431,-1.4269698
"LOIRE, 49610, France",,
"MANS, 72100, France",47.9950745,0.1920567
"MISSILLAC, 44780, France",47.4819903,-2.1590855
"SORINIÈRES, 44840, France",47.148006,-1.5302384
"LIMOUZINIERE, 44310, France",46.9934898,-1.5970541
"SABLÉ, 72300, France",47.8417452,-0.3419932
"ROCHE, 85000, France",,
"INDRE, 44610, France",47.1978039,-1.6698958
"MER, 44600, France",,
"PUILBOREAU, 17138, France",46.1851302,-1.1177313
"CHEVROLIERE, 44118, France",47.0936557,-1.6117844
"AIGREFEUILLE, 44140, France",43.5680914,1.5891434
"SAINT, 44230, France",47.1904456,-1.4956837
"NAZAIRE, 44600, France",47.2733517,-2.2138905
"CROSSAC, 44160, France",47.4111944,-2.1707156
"BERGERAC, 24100, France",44.8534568,0.487531
"BRÉTIGNOLLES, 85470, France",46.6286111,-1.8538889
"SAINTE, 72380, France",45.4401467,4.3873058
"CHAPELLE, 44410, France",,
"RUFFIGNÉ, 44660, France",47.7564546,-1.4929688
"MAGNAC, 16600, France",45.6658244,0.2371275
"MOUZEIL, 44850, France",47.4484305,-1.3485691
"PARCAY, 37210, France",47.4413885,0.7456752
"CHÂTEAUBRIANT, 44110, France",47.7194057,-1.3757282
"PESSAC, 33600, France",44.805615,-0.6308396
"POIROUX, 85440, France",46.5031039,-1.5347269
"FÉGRÉAC, 44460, France",47.5848288,-2.0444369
"CARBON, 33560, France",44.8937722,-0.50503
"LOIRE, 49290, France",,
"SAINT, 44680, France",47.1058112,-1.8651647
"ANGLES, 85750, France",46.40716,-1.4027911
"ARCANGUES, 64200, France",43.4367292,-1.5216228
"SAINT, 85160, France",46.7783943,-2.0383461
"MÉRIGNAC, 33700, France",44.842168,-0.6469022
"BOUCHEMAINE, 49080, France",47.4234644,-0.6085356
"GIVRAND, 85800, France",46.6722222,-1.8836111
"AIZENAY, 85190, France",46.7391797,-1.6084351
"MARSAC, 44170, France",45.7409622,0.0791957
"BESNÉ, 44160, France",47.3971609,-2.0921265
"SAINT, 44350, France",47.2966961,-2.403092
"CROSMIÈRES, 72200, France",47.746478,-0.1506805
"VIGNEUX, 44360, France",47.3267919,-1.7368752
"BROUZILS, 85260, France",46.8869394,-1.3213179
"SAINT, 49400, France",47.2580614,-0.1164
"OLONNE, 85100, France",46.5001552,-1.7925663
"PAU, 64000, France",43.2957547,-0.3685668
"TRANCHE, 85360, France",46.3440097,-1.4380541
"MER, 44770, France",,
"BEAULIEU, 85190, France",47.7277699,4.7269377
"TOUTLEMONDE, 49360, France",47.0561358,-0.7664831
"SALAUNES, 33160, France",44.9361892,-0.8296983
"FLECHE, 72200, France",47.6968408,-0.0746149
"LAGORD, 17140, France",46.186368,-1.1511322
"LOROUX, 44430, France",47.2385415,-1.3472697
"ORQUES, 72350, France",48.0274356,-0.2730156
"BOISSIÈRE, 44430, France",47.2323136,-1.220173
"SAUTRON, 44880, France",47.2632611,-1.6683537
"ROCHELLE, 17000, France",46.159732,-1.1515951
"SAINT, 44250, France",47.2761446,-2.1643871
"CÉRANS, 72330, France",47.8302158,0.0942153
"MOUILLERON, 85000, France",47.692162,5.1092099
"PHAYE, 28630, France",48.4447171,1.5752688
"THOUARÉ, 44470, France",47.2651143,-1.4409626
"LIMOUZINIÈRE, 44310, France",46.9934898,-1.5970541
"MONTOURNAIS, 85700, France",46.742318,-0.762914
"L, 53970, France",47.9759047,-0.7935982
"RIEZ, 85270, France",43.8176907,6.0930048
"ANCENIS, 44150, France",47.3648141,-1.1816088
"MESMIN, 85700, France",46.79441,-0.7323462
"ROCHESERVIÈRE, 85620, France",46.9385391,-1.50975
"NOIRMOUTIER, 85330, France",47.000089,-2.2441449
"BRUFFIÈRE, 85530, France",47.0138889,-1.1963889
"LIGNE, 44850, France",47.4123249,-1.3768667
"AVRILLÉ, 85440, France",46.4708333,-1.4927778
"VENANSAULT, 85190, France",46.6858331,-1.5113138
"ARVERT, 17530, France",45.7409118,-1.1266705
"MACHECOUL, 44270, France",46.9919595,-1.8480715
"LAYON, 49380, France",47.2665374,-0.5761455
"TRÉLAZÉ, 49800, France",47.4460674,-0.4652452
"ROCHEFORT, 56220, France",45.9366592,-0.9616399
"BRILLOUET, 85210, France",46.5234719,-1.0197025
"SAINT, 44730, France",47.1831325,-2.1470589
"UZEL, 22460, France",48.2796056,-2.840499
"VIE, 85800, France",46.692985,-1.9254545
"TEMPLE, 44360, France",48.8664946,2.3607078
"DONGES, 44480, France",47.3185376,-2.0745708
"TREILLIÈRES, 44119, France",47.3309103,-1.6240815
"CUBNEZAIS, 33620, France",45.07378,-0.40786
"BAILLEUL, 72200, France",50.7396668,2.7349286
"BARBATRE, 85630, France",46.9447222,-2.1794444
"BARRE, 85550, France",,
"L, 85740, France",46.9923437,-2.2593114
"TOUCHES, 44390, France",47.4423506,-1.4313813
"VICTOR, 41260, France",,
"LOIRE, 37540, France",,
"SARAN, 45770, France",47.9514553,1.8749906
"RICHE, 37520, France",48.8912165,6.6294817
"TOURS, 37300, France",,
"BORDEAUX, 33300, France",44.841225,-0.5800364
"LUISANT, 28600, France",48.4231,1.46835
"TOURS, 37000, France",47.3894316,0.6939293
"OLIVET, 45160, France",47.8650984,1.9015752
"FONDETTES, 37230, France",47.4036631,0.5961846
"DIJON, 21000, France",47.3215806,5.0414701
"CERBOIS, 18120, France",47.1112348,2.0957714
"ORLEANS, 45100, France",,
"CHÂTEAUNEUF, 28170, France",47.2186075,4.6400486
"ORLÉANS, 45000, France",47.9083863,1.9047423
"AMBOISE, 37400, France",47.4110351,0.983698
"DAMMARIE, 28360, France",48.3442865,1.4940462
"BÉVILLE, 28700, France",48.435865,1.7137625
"ORLÉANS, 45100, France",,
"LUCÉ, 28110, France",48.4364696,1.4628645
"CHAMPHOL, 28300, France",48.4685197,1.5082448
"CHAPELLE, 45380, France",,
"BEAUNE, 21200, France",47.0239064,4.8380426
"FONTAINE, 28240, France",45.1950183,5.6869624
"CHUISNES, 28190, France",48.4469313,1.2083665
"TOURS, 37100, France",47.3900474,0.6889268
"CHASSIGNOLLES, 36400, France",46.5411862,1.9399055
"VERT, 77240, France",,
"SORIGNY, 37250, France",47.241591,0.6939483
"BAILLEAU, 28320, France",48.5307669,1.6352795
"SAINT, 45160, France",47.7338599,1.8914746
"SAINT, 45380, France",47.8930783,1.8271257
"COURVILLE, 28190, France",49.2682395,3.6982234
"MAINVILLIERS, 28300, France",48.4489382,1.4580047
"CHOISY, 77320, France",48.7592152,3.217024
"SAINT, 45800, France",47.9039235,1.9640754
"BERTHENOUX, 36400, France",46.6612216,2.0613187
"LOCHES, 37600, France",47.1281692,0.9979549
"CHÂTEAUROUX, 36000, France",46.8203785,1.6770956
"TOURAINE, 37150, France",47.2232046,0.6866703
"ÈME, 69007, France",44.205708,4.7290019
"METTRAY, 37390, France",47.4525121,0.6495924
"BOURGES, 18000, France",47.0811658,2.399125
"BAILLEAU, 28120, France",48.3649496,1.3278089
"CHENNEVIÈRES, 94430, France",48.7965001,2.530442
"SAINT, 45750, France",47.8717976,1.8511505
"SAINT, 28300, France",48.5118805,1.5513378
"FLEURY, 45400, France",49.258735,3.1566772
"SAINT, 41210, France",47.5226047,1.9335706
"CHAMPROND, 28240, France",48.0775588,0.7453214
"VIDAME, 28360, France",48.2795417,1.4611984
"VAUX, 18300, France",,
"MAINTENON, 28130, France",48.5865517,1.5773313
"DANGEAU, 28160, France",48.2098865,1.2869678
"DIVONNE, 1220, France",46.3570916,6.143049
"TAVERS, 45190, France",47.7580043,1.6134223
"BLOIS, 41000, France",47.5876861,1.3337639
"FRESNAY, 28300, France",48.3144266,4.7513167
"PONTOISE, 95300, France",49.0467275,2.0951961
"LIMERAY, 37530, France",47.4589811,1.0402695
"PUISEAUX, 45390, France",48.2040248,2.472464
"VOUVRAY, 37210, France",47.4136687,0.7998446
"SEMOY, 45400, France",47.9324329,1.9491166
"SAINT, 45140, France",47.9199368,1.8275253
"LUZILLE, 37150, France",47.262506,1.0612373
"NOUZILLY, 37380, France",47.5433632,0.7438321
"LOUPE, 28240, France",48.4737,1.02521
"COMBRAY, 28120, France",48.9498964,-0.4385154
"BEAUJEU, 18300, France",47.3268119,2.7078588
"DREUX, 28100, France",48.7358807,1.3684254
"ORMOY, 91540, France",48.5751914,2.4493544
"BOSSAY, 37290, France",46.8321259,0.9662267
"CHAMBRAY, 37050, France",49.0738447,1.3090566
"RUELLE, 45140, France",,
"SANCERRE, 18300, France",47.3306906,2.8390454
"JOUÉ, 37300, France",47.3511161,0.6622353
"BOURDINIÈRE, 28360, France",48.3193228,1.4293354
"SAINT, 45650, France",,
"CHÂTRE, 36400, France",46.5816129,1.9867425
"FORET, 95320, France",,
"MESLAND, 41150, France",47.5097085,1.1228134
"SOURS, 28630, France",48.4114907,1.5967084
"RAYMOND, 18130, France",46.9707059,2.6854848
"PROUAIS, 28410, France",48.7206532,1.5435369
"OISEME, 28300, France",48.4709206,1.5375286
"SERMAISES, 45300, France",48.2969333,2.2039781
"BAILLEAU, 28300, France",48.4900965,1.3968479
"BEAUMONT, 37360, France",50.0839627,2.6567465
"ANET, 28260, France",48.8552557,1.4391896
"PERRET, 92300, France",48.892956,2.2881683
"RICHELIEU, 37120, France",47.0124915,0.3240548
"SAINT, 37370, France",47.6039421,0.4783114
"SAINT, 37550, France",47.3639454,0.7303117
"LUCE, 28110, France",48.4364696,1.4628645
"BLERE, 37150, France",47.3279746,0.9918234
"CHAUSSÉE, 41260, France",,
"VOVES, 28150, France",48.2693886,1.632148
"GUYON, 28190, France",48.472944,1.3136388
"POISVILLIERS, 28300, France",48.507747,1.4705631
"ÉPERNON, 28230, France",48.6101745,1.677222
"SAINT, 41110, France",47.269647,1.3739738
"ÈME, 69008, France",44.205708,4.7290019
"AUXY, 45340, France",48.1181252,2.4759183
"GALLARDON, 28320, France",48.5243351,1.6896881
"MONTARGIS, 45200, France",47.9978628,2.7310072
"COUDRAY, 28630, France",49.3370866,1.5053605
"NEUILLÉ, 37360, France",47.5485425,0.5481456
"GILMERT, 28300, France",48.5149964,1.4172909
"PIN, 28120, France",,
"MONTLOUIS, 37270, France",47.3915591,0.8172484
"CRAVANT, 45190, France",47.82821,1.57252
"LOIRE, 37270, France",,
"OUZOUER, 45570, France",47.7664387,2.4794838
"COURMEMIN, 41230, France",47.4724392,1.627543
"SENONCHES, 28250, France",48.5595325,1.0322607
"BEAUGENCY, 45190, France",47.7778775,1.6311944
"MÉNESTREAU, 45240, France",47.7008085,2.0232754
"VELIN, 69120, France",45.7784255,4.9206153
"PATAY, 45310, France",48.0485312,1.6938455
"NOTTONVILLE, 28140, France",48.1124879,1.5064432
"NOGENT, 28400, France",48.321809,0.8211488
"SAINT, 41500, France",47.7001865,1.50794
"SAINT, 18340, France",46.9983055,2.4550898
"JARGEAU, 45150, France",47.8649447,2.1242805
"BOIS, 28300, France",45.4888007,-0.5994643
"SAVIGNY, 37420, France",49.0491048,-1.3392101
"NEUVY, 37370, France",48.7469304,3.5177618
"DADONVILLE, 45300, France",48.1581294,2.2709031
"BRAYE, 45800, France",49.4234088,3.3716939
"BOURGUEIL, 37140, France",47.2827691,0.1788873
"YÈVRE, 45300, France",48.1450175,2.326809
"LEVES, 28300, France",48.4782477,1.4786967
"TAUXIGNY, 37310, France",47.219009,0.8330771
"INDRE, 37260, France",46.8121057,1.5382052
"SAINT, 41350, France",47.6413962,1.4450313
"SAINT, 77164, France",48.8455927,2.4249063
"EURE, 28190, France",49.0756358,0.9651829
"CHARTRES, 28630, France",48.4438601,1.4881434
"ROCHE, 37500, France",,
"CHINON, 37500, France",47.1667182,0.2402095
"VINEUIL, 41350, France",47.5857995,1.3892843
"L, 38080, France",45.621521,5.2290818
"ONZAIN, 41150, France",47.51657,1.167113
"MÉZIÈRES, 45370, France",47.8184279,1.8039921
"MIRE, 37510, France",47.3413214,0.6131325
"LAMOTTE, 41600, France",47.6052963,2.0267353
"CHATEAUDUN, 28200, France",48.0702298,1.3284948
"CHARSONVILLE, 45130, France",47.9283258,1.5809038
"MONTESSON, 78360, France",48.9076492,2.149134
"CHEVILLY, 45520, France",48.0260305,1.8739814
"ROCHECORBON, 37210, France",47.4141177,0.7549178
"THIVILLE, 28200, France",48.0265737,1.3738325
"JOUY, 28300, France",48.5119751,1.549945
"RIVIÈRE, 37500, France",47.1457949,0.2774785
"ROUSSILLON, 38150, France",45.3735991,4.8124049
"SEUILLY, 37500, France",47.1342221,0.1711138
"CHANCEAUX, 37390, France",47.5200549,4.7183333
"BUXEUIL, 37160, France",46.9751464,0.6729268
"COURCHEVEL, 73120, France",45.4140984,6.6349892
"JONCHERETS, 28350, France",48.7673038,1.1978005
"YERRE, 28290, France",48.0995846,1.1224687
"VENDOME, 41100, France",47.7934453,1.0662256
"CHERISY, 28500, France",48.746715,1.4233088
"SAINT, 37500, France",47.2112367,0.073799
"VAL, 45590, France",47.8192005,1.9476048
"CROIX, 37150, France",50.6802124,3.1564365
"DHUIZON, 41220, France",47.5884108,1.6562593
"AVRE, 28350, France",48.763316,1.1487261
"LUNAY, 41360, France",47.8100299,0.9151627
"POMMERAY, 41000, France",47.60714,1.26825
"VILLERBON, 41000, France",47.66175,1.37176
"SULLY, 45600, France",49.5592119,1.7836531
"BALLAN, 37510, France",47.336776,0.6179893
"CRAVANT, 37500, France",47.82821,1.57252
"SAINT, 28190, France",48.4183545,1.3534123
"SERGY, 1630, France",49.1828833,3.5710256
"VALENÇAY, 36600, France",47.161511,1.5666078
"ALLOGNY, 18110, France",47.2252713,2.322902
"OUARVILLE, 28150, France",48.3544707,1.7718898
"GINGOLPH, 74500, France",46.3890207,6.7756388
"AVORD, 18520, France",47.0353206,2.6511406
"DIGNY, 28250, France",48.5366722,1.1573847
"SAINT, 18110, France",47.2683825,2.3995253
"LAILLY, 45740, France",48.24336,3.52939
"VASSELAY, 18110, France",47.1576043,2.3886661
"HOUDAN, 78550, France",48.7912001,1.6019247
"SANDILLON, 45640, France",47.8455805,2.0327513
"SANCÉ, 71000, France",46.3401851,4.8308429
"PLOMBIERES, 21370, France",47.3396438,4.9721576
"FONTAINE, 21121, France",48.21322,4.71393
"COUTERNON, 21560, France",47.3346853,5.1512997
"SAINT, 89000, France",47.7978479,3.5728386
"BELFORT, 90000, France",47.6379599,6.8628942
"IS, 21120, France",47.5203015,5.129704
"PERRIGNY, 21160, France",47.2660906,5.0089521
"VILLEPARISIS, 77270, France",48.939344,2.6176193
"PASQUES, 21370, France",47.3663891,4.8621014
"BRETIGNY, 21490, France",47.3984947,5.0999025
"SENNECEY, 71240, France",46.6409587,4.869504
"BESANÇON, 25000, France",47.2380222,6.0243622
"MARCILLY, 21120, France",47.5198319,5.1333847
"VESCEMONT, 90200, France",47.7441545,6.8446336
"MÂCON, 71000, France",46.3036683,4.8322266
"AGENCOURT, 21700, France",47.12773,4.98024
"MOULINS, 89130, France",49.4217,3.6847
"LONGVIC, 21600, France",47.2841003,5.0574798
"GEX, 1170, France",46.333849,6.0577244
"PAGNY, 21250, France",47.0462645,5.2010431
"CHARREY, 21170, France",47.08752,5.16337
"ESSERTENNE, 70100, France",46.8128798,4.5451375
"AUXERRE, 89000, France",47.7961287,3.570579
"MARNE, 77420, France",,
"MONTREAL, 89420, France",47.5420737,4.0362646
"LACHAPELLE, 90360, France",49.76507,1.95688
"BAVILLIERS, 90800, France",47.6220703,6.8347586
"BRETENIÈRE, 21110, France",47.2403931,5.1144328
"CHALEZEULE, 25220, France",47.2599619,6.0755049
"GRIESHEIM, 67370, France",48.63551,7.667722
"GISSEY, 21410, France",47.2640098,4.7695049
"QUETIGNY, 21800, France",47.3125861,5.1162694
"TOUCY, 89130, France",47.7338629,3.2939186
"TIL, 21120, France",47.5155368,5.1753631
"CHEMILLY, 89250, France",46.4889734,3.3155176
"SAINT, 89110, France",47.8956243,3.2365178
"BOURG, 1000, France",,
"SAONE, 71100, France",46.7831001,4.8534326
"ÉCURCEY, 25150, France",47.4057964,6.8109578
"SENNECEY, 21800, France",47.2911862,5.1020211
"ABBEVILLERS, 25310, France",47.4314084,6.9185771
"TILLE, 21110, France",47.2768197,5.1748412
"TILLE, 21120, France",47.5219136,5.1123622
"PICHANGES, 21120, France",47.4618314,5.15004
"TALANT, 21240, France",47.3359617,5.0047641
"ARCEY, 25750, France",47.5224742,6.6585582
"EVETTE, 90350, France",47.6753858,6.7984718
"ROMANÈCHE, 71570, France",46.1892222,4.7367094
"CUDOT, 89116, France",47.9839385,3.1787579
"CHÂTILLON, 25870, France",47.3082022,6.0059987
"ROSHEIM, 67560, France",48.496421,7.4698832
"NEUREY, 70000, France",47.6706364,6.2297738
"THEIL, 89320, France",48.1677376,3.4300762
"OUANNE, 89560, France",47.6615696,3.418284
"SAULNOT, 70400, France",47.5618443,6.6305707
"FEUCHEROLLES, 78810, France",48.8725969,1.9723953
"GUERCHY, 89113, France",47.892487,3.4391053
"PLOMBIÈRES, 21370, France",47.3396438,4.9721576
"CHASTENAY, 89560, France",47.6536025,3.3868647
"BETHONVILLIERS, 90150, France",47.68063,6.9640988
"SAINTE, 91700, France",48.6315318,2.3448961
"SALMAISE, 21690, France",47.4557798,4.6628043
"GRAS, 25790, France",46.9951702,6.5441313
"CHAMPIGNELLES, 89350, France",47.7811107,3.0729273
"SAINT, 90100, France",47.4704255,6.9642764
"CHAUX, 90330, France",47.7051441,6.8363764
"TOULON, 71320, France",43.1257311,5.9304919
"PARAY, 71600, France",46.450559,4.1177959
"OUROUX, 71370, France",46.721557,4.9536545
"BAINS, 73100, France",45.6886292,5.9146362
"ANGEOT, 90150, France",47.6961886,7.0116403
"LAINSECQ, 89520, France",47.5546946,3.2733733
"PIN, 39210, France",,
"CHALON, 71100, France",46.7831001,4.8534326
"MÉZILLES, 89130, France",47.7009023,3.1719604
"SENS, 89100, France",48.1978559,3.282606
"PALINGES, 71430, France",46.5536228,4.2184493
"VILLE, 74100, France",,
"APPOIGNY, 89380, France",47.8781778,3.523723
"LEVERNOIS, 21200, France",46.9947098,4.8739879
"MILLERY, 21140, France",47.5154205,4.3163267
"ARBOUANS, 25400, France",47.489871,6.8109414
"CHEVREMONT, 90340, France",47.6272079,6.9219575
"BUFFON, 21500, France",47.64993,4.27483
"BROSSES, 89660, France",47.5372976,3.6911988
"ANTEUIL, 25340, France",47.3873555,6.5580444
"LINDRY, 89240, France",47.8006,3.4189
"ALLÉRIOT, 71380, France",46.8112129,4.9432083
"ARCEAU, 21310, France",47.3843623,5.1900111
"SAINT, 89140, France",48.3391295,3.1673387
"NOLAY, 21340, France",46.9517254,4.6333364
"PLAISANCE, 93360, France",48.8317665,2.3140421
"BILLEY, 21130, France",47.14435,5.43099
"COURCELLES, 21460, France",47.4494217,4.173739
"ÉGLENY, 89240, France",47.8083,3.365
"BRASSY, 58140, France",47.2617928,3.9368194
"MASSINGY, 21140, France",47.90704,4.59694
"CHAILLEY, 89770, France",48.0825314,3.7014993
"MÉNÉTREUX, 21150, France",47.5568714,4.4705211
"VILLEBOUGIS, 89150, France",48.2028307,3.1593473
"COLLAN, 89700, France",47.8439388,3.874381
"PARON, 89100, France",48.1785718,3.2470551
"VILLENEUVE, 89500, France",46.0300569,4.8843573
"LABERGEMENT, 21820, France",46.994591,5.0933768
"BLIGNY, 21200, France",46.9859005,4.8240614
"VENAREY, 21150, France",47.5421702,4.4464783
"SAINT, 21850, France",47.336616,5.074294
"DEMIGNY, 71150, France",46.9304052,4.8353514
"SAINT, 21700, France",47.1305955,4.9563872
"ROCHEPOT, 21340, France",46.9578,4.67806
"VILLEBICHOT, 21700, France",47.1398035,5.0422263
"NUITS, 21700, France",47.1367598,4.9489061
"BESSEY, 21110, France",47.1561882,5.1605638
"NOÉ, 89320, France",48.16288,3.40215
"MONTAGNY, 21200, France",46.99031,4.84885
"DOMATS, 89150, France",48.1148016,3.0665531
"CORGENGOUX, 21250, France",46.9904322,4.9901841
"EYBENS, 38320, France",45.1524,5.74812
"ROUVRAY, 21530, France",47.4242539,4.1024123
"MONETEAU, 89470, France",47.8483265,3.5794275
"MAXILLY, 21270, France",47.33359,5.42632
"OSLON, 71380, France",46.7834317,4.920521
"ESSEY, 21320, France",47.2037611,4.5245759
"LANS, 71380, France",46.7698546,4.9184516
"CHÂTENOY, 71880, France",46.794589,4.8145788
"GIVRY, 71640, France",46.7831191,4.7432564
"SASSENAY, 71530, France",46.8307941,4.9199008
"VIREY, 71530, France",46.8433671,4.8650001
"SAINT, 71380, France",46.7753215,4.8883837
"GERGY, 71590, France",46.8766663,4.9470751
"PRENOIS, 21370, France",47.3762495,4.8965293
"FRAGNES, 71530, France",46.8319775,4.8530792
"BUXY, 71390, France",46.7133901,4.695059
"SAVIGNY, 21380, France",47.4301439,5.0525939
"TOURNUS, 71700, France",46.5617373,4.9122425
"COLOMBIER, 71800, France",,
"SENOZAN, 71260, France",46.3967,4.86404
"VILLIERS, 89130, France",47.7821588,3.2120077
"DIGES, 89240, France",47.7297262,3.3977189
"ORMES, 89110, France",49.0533673,0.9634334
"JOIGNY, 89300, France",47.9812486,3.3995767
"RESLE, 89230, France",47.8650065,3.6810743
"FENAY, 21600, France",47.2333111,5.0639026
"CHAGNY, 71150, France",46.910578,4.7523461
"MAILLY, 71340, France",46.2225069,4.1135903
"HÉRICOURT, 70400, France",47.5752324,6.7625445
"BURZY, 71460, France",46.5967065,4.5823147
"CHAPELLE, 71570, France",,
"FREGANDE, 71250, France",46.4680536,4.6008891
"CHARNAY, 71850, France",46.3098212,4.784542
"CHEROY, 89690, France",48.201491,2.9966394
"CALUIRE, 69300, France",45.7969952,4.8423304
"VAUZELLES, 58640, France",47.0014022,3.1342601
"CULLES, 71460, France",46.6528424,4.6531563
"SAINT, 21210, France",47.27955,4.2300326
"CHATEL, 70500, France",47.7910208,5.7529244
"GRANDVILLARS, 90600, France",47.5379779,6.976952
"MONTBARD, 21500, France",47.6241674,4.3373194
"MARCIGNY, 71110, France",46.2747868,4.0398531
"SEURRE, 21250, France",46.9995787,5.1487861
"DOUBS, 25250, France",47.0669916,6.2356228
"JALLANGES, 21250, France",46.9885115,5.148711
"COSNE, 58200, France",47.4112642,2.926032
"CHARMONT, 25200, France",48.87046,4.86646
"SAINT, 71620, France",46.8507902,5.0700471
"LOIRE, 58200, France",,
"MACON, 71000, France",46.3036683,4.8322266
"SAULIEU, 21210, France",47.2775177,4.230692
"MONTBÉLIARD, 25200, France",47.5102368,6.7977564
"FRANCHEVELLE, 70200, France",47.7399,6.45829
"COTE, 21160, France",,
"GIROMAGNY, 90200, France",47.7418553,6.8251787
"VERNOY, 89150, France",48.0953879,3.1242557
"THORIGNY, 89260, France",48.2934495,3.4008832
"ORMOICHE, 70300, France",47.8052949,6.3119677
"SAINT, 89100, France",48.1903043,3.2733111
"AUTUN, 71400, France",46.9510313,4.2989478
"HERICOURT, 70400, France",47.5666257,6.7737119
"SAUVEUR, 21800, France",47.2977106,5.1382218
"CHAULGNES, 58400, France",47.1286229,3.103055
"VERON, 89510, France",48.1281866,3.3070869
"YONNE, 89500, France",47.8551258,3.6450439
"LUGNY, 71260, France",46.4720992,4.8113081
"BRIONNAIS, 71800, France",46.2900441,4.1772042
"SAINT, 89190, France",48.1805525,3.5181763
"VALENTIGNEY, 25700, France",47.4622925,6.8308784
"PERCENEIGE, 89260, France",48.3492408,3.4061263
"CHELLES, 77500, France",48.8783804,2.590549
"LAIZÉ, 71870, France",46.3954657,4.805774
"GEORGES, 21700, France",,
"SAINT, 39200, France",46.386603,5.866288
"FOUGEROLLES, 70220, France",47.902459,6.4160062
"BAINS, 70300, France",47.817177,6.3808865
"FARGEAU, 89170, France",47.6402988,3.0722102
"MONTCEAU, 71300, France",46.6740455,4.3631681
"PLANCHEZ, 58230, France",47.1363033,4.0163934
"NEUILLY, 21800, France",48.9321383,1.4209125
"MARMAGNE, 71710, France",46.8372637,4.3572792
"COULOURS, 89320, France",48.1639,3.58643
"CHARNY, 89120, France",47.8856087,3.0955024
"ÉTANG, 71190, France",46.8679115,4.1837726
"PUISAYE, 58310, France",47.529397,3.0737404
"NORDHOUSE, 67150, France",48.4492097,7.6735124
"VALENTIN, 25480, France",47.2775455,5.9977776
"MORTEAU, 25130, France",47.0569367,6.6047189
"ROUSSES, 39220, France",46.4855507,6.0603498
"CLAIREFONTAINE, 70210, France",47.85816,6.0828297
"SAUNIER, 39000, France",46.6727037,5.5589973
"COULOMMIERS, 77120, France",48.8121301,3.0843818
"VALBERT, 70220, France",47.892606,6.4227255
"GENETS, 89350, France",,
"JOUX, 71220, France",46.4819899,4.4393968
"URZY, 58130, France",47.048138,3.2028956
"DAIX, 21121, France",47.3528054,4.9985937
"BESANCON, 25000, France",47.2380222,6.0243622
"CLAUDE, 39360, France",,
"ARBOIS, 39600, France",46.9032246,5.7727504
"ANDELAIN, 58150, France",49.6433333,3.3711111
"BEFFIA, 39270, France",46.5265,5.54792
"NEVERS, 58000, France",46.9876601,3.1577203
"PAILLY, 89140, France",48.3515712,3.3229016
"DESCHAUX, 39120, France",46.9548144,5.5019183
"SAPONCOURT, 70210, France",47.871,6.02424
"ACCOLAY, 89460, France",47.654119,3.7061672
"SAINT, 25160, France",46.8135946,6.3019879
"TORCY, 71210, France",46.7695411,4.4523049
"DIJON, 21160, France",47.3215806,5.0414701
"VIRE, 71260, France",46.4487033,4.8417318
"ROI, 78590, France",,
"AVOUDREY, 25690, France",47.1366777,6.4360977
"SAUVIN, 89480, France",47.5031622,3.3463395
"VAUVILLERS, 70210, France",47.9222,6.09761
"DOUBS, 25300, France",46.9275204,6.3486077
"SAINT, 71340, France",46.2091877,4.0779067
"GENEUILLE, 25870, France",47.3232842,5.971252
"BLANCHE, 21200, France",,
"JUSSEY, 70500, France",47.8251954,5.9029154
"VILLAGE, 68128, France",50.1821204,4.021761
"LAXOU, 54520, France",48.6848709,6.1522232
"PLAINE, 67420, France",48.4190869,7.146114
"STRASBOURG, 67200, France",48.584614,7.7507127
"NANCY, 54000, France",48.6937223,6.1834097
"COLMAR, 68000, France",48.0777517,7.3579641
"BOOFZHEIM, 67860, France",48.3323342,7.6805338
"MONTIGNY, 57950, France",49.4592915,0.9999358
"LONGLAVILLE, 54810, France",49.5339956,5.8023036
"YUTZ, 57970, France",49.3615058,6.1919276
"ESCHENTZWILLER, 68440, France",47.713382,7.3986386
"METZ, 57000, France",49.1089882,6.1773412
"BISCHHEIM, 67800, France",48.6148396,7.7523716
"SELESTAT, 67600, France",48.2594396,7.454217
"SAUSHEIM, 68390, France",47.787994,7.3720907
"VILLIERS, 94350, France",48.8811181,2.3149118
"NANCY, 54100, France",48.6897256,6.1737771
"HOLTZHEIM, 67810, France",48.5595788,7.6431803
"SAINT, 68300, France",47.5759374,7.5496645
"HUNINGUE, 68330, France",47.5941514,7.5794613
"APACH, 57480, France",49.4591762,6.3743525
"MINES, 57330, France",49.442245,6.0816664
"CHALIFERT, 77144, France",48.8896421,2.7725465
"LINGOLSHEIM, 67380, France",48.5559512,7.6817943
"HAGUENAU, 67500, France",48.8172236,7.7885978
"EPERNAY, 51200, France",49.042561,3.9528655
"WISCHES, 67130, France",48.5094853,7.2691416
"OSTWALD, 67540, France",48.5425109,7.7102193
"OBERNAI, 67210, France",48.4623358,7.4817123
"SOULTZ, 67120, France",48.5708677,7.4874143
"BAS, 68790, France",47.7365524,7.2706716
"OBERSCHAEFFOLSHEIM, 67203, France",48.5861305,7.6488066
"WINTZENHEIM, 68920, France",48.0724515,7.2925545
"TURCKHEIM, 68230, France",48.0878217,7.278011
"STRASBOURG, 67100, France",48.584614,7.7507127
"CHALLERANGE, 8400, France",49.3110058,4.745629
"ROTHAU, 67570, France",48.4553525,7.2068703
"MITTELHAUSBERGEN, 67206, France",48.6139556,7.6929349
"MARLY, 57155, France",49.0600241,6.1545719
"FLORANGE, 57190, France",49.3278069,6.122827
"ROSENAU, 68128, France",47.6375154,7.5371474
"BISCHWILLER, 67240, France",48.7682281,7.8597466
"METZ, 57280, France",49.1196964,6.1763552
"MAROLLES, 91630, France",49.170365,3.1044017
"LAMPERTHEIM, 67450, France",48.6503574,7.7003567
"ILLKIRCH, 67400, France",48.5299117,7.7113254
"CHAMPMOTTEUX, 91150, France",48.3437045,2.3233274
"URMATT, 67280, France",48.5272011,7.3247471
"MARNE, 94500, France",48.961264,4.3122436
"MEURTHE, 54510, France",48.6566824,6.2661805
"ENSISHEIM, 68190, France",47.8665246,7.3529099
"KEMBS, 68680, France",47.6895561,7.5048054
"WOLFISHEIM, 67202, France",48.5875517,7.6672188
"ROSHEIM, 67190, France",48.496421,7.4698832
"CLOUD, 78170, France",48.8478753,2.136145
"PFASTATT, 68120, France",47.7697441,7.3025075
"ARS, 57130, France",49.0769676,6.0763114
"REDANGE, 57390, France",49.493259,5.9189504
"HETTANGE, 57330, France",49.407298,6.1516319
"ZIMMERSHEIM, 68440, France",47.7203217,7.3881723
"FEGERSHEIMM, 67640, France",,
"SAINT, 52100, France",48.6367109,4.9558895
"GEISPOLSHEIM, 67118, France",48.5146952,7.6437386
"BRUMATH, 67170, France",48.7309406,7.708107
"SARRY, 51520, France",48.9200788,4.4063803
"CONDECOURT, 95450, France",49.041871,1.9400988
"RAEDERSHEIM, 68190, France",47.8876619,7.2835061
"HOUDREVILLE, 54330, France",48.5071059,6.1040674
"WANTZENAU, 67610, France",48.6583055,7.8277685
"VILLERUPT, 54190, France",49.468468,5.9326783
"MONTLHÉRY, 91310, France",48.6396904,2.2710952
"OFFENDORF, 67850, France",48.7118236,7.9123631
"TRUCHTERSHEIM, 67370, France",48.6636843,7.6072743
"PFULGRIESHEIM, 67370, France",48.6444298,7.6716419
"RIXHEIM, 68170, France",47.7441969,7.3968786
"GRANDES, 51400, France",,
"NANCY, 54600, France",48.6937223,6.1834097
"TROYES, 10000, France",48.2971626,4.0746257
"TERVILLE, 57180, France",49.3449986,6.1343914
"WITTENHEIM, 68270, France",47.8080799,7.3373681
"GRANDFONTAINE, 67130, France",48.4933336,7.1616678
"FEGERSHEIM, 67640, France",48.4897313,7.6798031
"MACEY, 10300, France",48.2927149,3.9154359
"RICHARDMENIL, 54630, France",48.5943832,6.1695329
"ZILLISHEIM, 68720, France",47.696435,7.2938793
"METZ, 57050, France",49.1196964,6.1763552
"ORGEVAL, 78630, France",48.9175,1.96982
"WOIPPY, 57140, France",49.1515848,6.1519224
"ROMAIN, 54400, France",49.5266263,5.7275531
"BARR, 67140, France",48.4088704,7.4492808
"GRAFFENSTADEN, 67400, France",48.5299117,7.7113254
"DIEULOUARD, 54380, France",48.8416054,6.0683191
"UNGERSHEIM, 68190, France",47.8775506,7.3065723
"MUTZIG, 67190, France",48.5395474,7.4555778
"GÉRARDMER, 88400, France",48.0705772,6.8776965
"ALGOLSHEIM, 68600, France",48.0052375,7.5606558
"GRUSSENHEIM, 68320, France",48.1458792,7.4868717
"OLWISHEIM, 67170, France",48.6967773,7.6731395
"MALGRANGE, 54140, France",48.6735375,6.2023462
"BOERSCH, 67530, France",48.4767699,7.4410859
"MACKWILLER, 67430, France",48.9259941,7.175808
"NIEDERHERGHEIM, 68250, France",47.985639,7.3998713
"KUTTOLSHEIM, 67520, France",48.6437325,7.5233697
"REININGUE, 68950, France",47.7507352,7.2355917
"PERE, 78440, France",,
"ERNOLSHEIM, 67120, France",48.5645224,7.5664103
"HERBSHEIM, 67230, France",48.3496926,7.6314436
"HOUSSEN, 68125, France",48.1261567,7.3786993
"METZERESCHE, 57920, France",49.2986409,6.3068481
"CUISY, 77165, France",49.0202737,2.7724769
"VEUVE, 51520, France",49.0306202,4.3161662
"ABLIS, 78660, France",48.517153,1.8368758
"BENFELD, 67230, France",48.3707281,7.5952375
"HAMBACH, 57910, France",49.0613593,7.0372308
"BILTZHEIM, 68127, France",47.9585244,7.3896085
"JEANDELAINCOURT, 54114, France",48.841708,6.2405569
"LIVERDUN, 54460, France",48.7494954,6.0630033
"WASIGNY, 8270, France",49.6328788,4.3567064
"VEZOUZE, 54450, France",48.5621562,6.8054088
"REVIN, 8500, France",49.9421221,4.6374643
"HORBOURG, 68180, France",48.0777671,7.3920762
"DENIS, 93200, France",,
"DISTROFF, 57925, France",49.3322,6.2667
"HOCHSTETT, 67170, France",48.7783977,7.6767672
"APPENWIHR, 68280, France",48.027117,7.4406042
"MITTELSCHAEFFOLSHEIM, 67170, France",48.7003431,7.6528948
"BALGAU, 68740, France",47.9277922,7.540449
"WECKOLSHEIM, 68600, France",48.0025872,7.5138751
"ATHIS, 91200, France",49.0154807,4.1278042
"DURNINGEN, 67270, France",48.6833605,7.5680486
"HURTIGHEIM, 67117, France",48.6174604,7.591474
"BATTENHEIM, 68390, France",47.8196237,7.380785
"METZ, 57070, France",49.1196964,6.1763552
"WESTHOFFEN, 67310, France",48.6028986,7.440422
"RUSTENHART, 68740, France",47.9413244,7.4636566
"ROUFFACH, 68250, France",47.9569146,7.2994054
"BORDEAUX, 33000, France",44.841225,-0.5800364
"BORDEAUX, 33100, France",44.841225,-0.5800364
"NIEUL, 17137, France",46.2069355,-1.1639199
"BORDEAUX, 33800, France",44.841225,-0.5800364
"BÈGLES, 33130, France",44.8074559,-0.5488542
"DAX, 40100, France",43.7084065,-1.0518771
"ATUR, 24750, France",45.1413842,0.7486027
"VILLEFONTAINE, 38090, France",45.614003,5.1580574
"CENON, 33150, France",44.8552882,-0.5239863
"SADIRAC, 33670, France",44.7806727,-0.4105625
"FLOIRAC, 33270, France",44.8327,-0.520823
"ARGENTIERE, 69610, France",45.7077152,4.4716329
"TREMBLADE, 17390, France",45.7686998,-1.1415773
"LORMONT, 33310, France",44.8791708,-0.5216683
"BRUGES, 33520, France",44.8842379,-0.6111474
"SÈTE, 34200, France",43.4014434,3.6959771
"CAPBRETON, 40130, France",43.6403659,-1.4315213
"PAREMPUYRE, 33290, France",44.9485379,-0.6052708
"ARCACHON, 33120, France",44.6616428,-1.1700018
"ANDERNOS, 33510, France",44.7476897,-1.0925184
"RIVE, 42800, France",45.5288401,4.6187386
"ANGLET, 64600, France",43.4813927,-1.5149935
"MESTRAS, 33470, France",44.6300818,-1.063704
"CLAVETTE, 17220, France",46.1409843,-1.0273587
"BÉNESSE, 40230, France",43.6334222,-1.361178
"GUJAN, 33470, France",44.6292407,-1.0790865
"TESTE, 33260, France",44.6369726,-1.1429337
"ROYAN, 17200, France",45.6245332,-1.0287636
"LIMONEST, 69760, France",45.8356702,4.7708336
"SAINT, 40230, France",43.6576329,-1.3064113
"SEIGNOSSE, 40510, France",43.68866,-1.37328
"MISSON, 40290, France",43.58642,-0.9614
"POITIERS, 86000, France",46.5802596,0.340196
"LEUCATE, 11370, France",42.909989,3.0270152
"TALENCE, 33400, France",44.8088438,-0.5879629
"ROCHELLE, 17440, France",46.159732,-1.1515951
"NIORT, 79000, France",46.3239233,-0.4646064
"TOULOUSE, 31200, France",,
"TOSSE, 40230, France",43.6882557,-1.3337954
"BOUCAU, 64340, France",43.5236127,-1.4857538
"VILLENAVE, 33140, France",44.7737872,-0.5595029
"MERIGNAC, 33700, France",44.842168,-0.6469022
"JARRIE, 17220, France",45.1053965,5.7485905
"AUDENGE, 33980, France",44.6883648,-1.0198263
"PERPIGNAN, 66000, France",42.6985304,2.8953121
"MARCHEPRIME, 33380, France",44.6920229,-0.8534089
"GRENOBLE, 38100, France",45.1875602,5.7357819
"CARCANS, 33121, France",45.0796259,-1.0439593
"AYTRÉ, 17440, France",46.1333325,-1.1146694
"SANCERGUES, 18140, France",47.1553751,2.918011
"BAYONNE, 64100, France",43.4945144,-1.4736657
"LACANAU, 33680, France",44.9776088,-1.0784851
"VAUX, 17640, France",,
"BORDEAUX, 33200, France",44.7936698,-0.668297
"BAILLARGUES, 34670, France",43.6609569,4.0133114
"BLANQUEFORT, 33290, France",44.9088982,-0.6300363
"SAINT, 17370, France",45.8419208,-1.2076155
"MEDIS, 17600, France",45.6422545,-0.966034
"TEICH, 33470, France",44.6357183,-1.0216522
"POULX, 30320, France",43.9105,4.42408
"SAINT, 33160, France",44.8957448,-0.7181378
"BOUSCAT, 33110, France",44.8661755,-0.5992399
"AMBARÈS, 33440, France",44.9259011,-0.4881846
"VILLEVEYRAC, 34560, France",43.5017177,3.607502
"BUXEROLLES, 86180, France",46.5983805,0.3526648
"SAINT, 17310, France",44.8100795,-0.5982853
"CADAUJAC, 33140, France",44.7552279,-0.5300643
"TYROSSE, 40230, France",43.6604837,-1.3029669
"LYON, 69100, France",,
"BRIVE, 19100, France",45.1584982,1.5332389
"SAINT, 17190, France",45.9791925,-1.3313536
"CHANAZ, 73310, France",45.8086242,5.7910568
"SAINT, 38370, France",45.4502966,4.7696885
"BIARRITZ, 64200, France",43.4832523,-1.5592776
"FUMEL, 47500, France",44.4966624,0.9684626
"ANGLET, 64100, France",43.4813927,-1.5149935
"VOIRON, 38500, France",45.3631386,5.5910751
"MEDOC, 33320, France",44.9044049,-0.6693402
"BIRIATOU, 64700, France",43.3335124,-1.7431876
"MATHES, 17570, France",45.718056,-1.146944
"EYSINES, 33320, France",44.8854667,-0.6486943
"ARÈS, 33740, France",44.767644,-1.1379928
"BISCARROSSE, 40600, France",44.3907065,-1.1609361
"SAINT, 24220, France",44.8700267,1.0432871
"MONTELIMAR, 26200, France",44.5579391,4.750318
"LIT, 40170, France",44.0322982,-1.256821
"BAINS, 74500, France",46.400979,6.5897931
"IZON, 33450, France",44.92014,-0.363
"PYLA, 33115, France",44.6173477,-1.2008556
"SAINT, 64310, France",43.3466394,-1.5184869
"VÉTRAZ, 74100, France",46.1708462,6.2584179
"BEAUVILLE, 47470, France",44.276745,0.8819538
"SAINT, 33450, France",44.9142839,-0.3921324
"MIMIZAN, 40200, France",44.2019796,-1.2309278
"SAINT, 17260, France",45.5435765,-0.62933
"CAMPAGNE, 32800, France",49.6460955,2.9596039
"MESCHERS, 17132, France",45.558105,-0.9538537
"PERIGNY, 17180, France",46.1543471,-1.0937391
"ARES, 33740, France",44.767644,-1.1379928
"VILLEURBANNE, 69100, France",45.7733573,4.8868454
"LANGON, 33210, France",44.5530659,-0.2449274
"OCEAN, 33680, France",44.8933212,-1.2118407
"SAINT, 17420, France",45.6516902,-1.1071568
"SALLES, 33770, France",44.550875,-0.8699921
"SANGUINET, 40460, France",44.4834776,-1.0759377
"ITEUIL, 86240, France",46.4887916,0.3113773
"SAINT, 24400, France",45.0516552,0.3960957
"LÈGE, 33950, France",42.8767279,0.6100228
"MONTPELLIER, 34000, France",43.6112422,3.8767337
"TOULENNE, 33210, France",44.55729,-0.26324
"BOURG, 73700, France",,
"BILLÈRE, 64140, France",43.3030044,-0.3905556
"D, 33140, France",,
"BALARUC, 34540, France",43.4603178,3.6844938
"PIÉGUT, 24360, France",45.623611,0.690277
"COGNAC, 16100, France",45.6931647,-0.3250175
"PLAUZAT, 63730, France",45.6216069,3.1497092
"BRIGNAC, 19310, France",43.6229,3.47241
"BIDART, 64210, France",43.4391702,-1.5898909
"BREUILLET, 17920, France",45.6938702,-1.0503893
"LAGRAVE, 33440, France",44.9259011,-0.4881846
"VIEUX, 40480, France",,
"SAUJON, 17600, France",45.6742681,-0.9244473
"MARENNES, 17320, France",45.8224965,-1.112795
"MARCHES, 73800, France",44.9762685,5.1080902
"BENOIT, 86280, France",46.5507911,0.3403768
"SAINT, 16150, France",45.8829757,0.6841361
"YVRAC, 33370, France",44.8807908,-0.4618132
"BIDACHE, 64520, France",43.4839874,-1.1408913
"PISANY, 17600, France",45.7018308,-0.7832002
"SAINT, 24100, France",44.851433,0.4828897
"CANÉJAN, 33610, France",44.7626562,-0.6540587
"HENDAYE, 64700, France",43.3641518,-1.7616499
"MÉDIS, 17600, France",45.6422545,-0.966034
"COURBIAC, 47370, France",44.3775456,1.0398739
"ANNECY, 74000, France",45.9020436,6.1217944
"AGEN, 47000, France",44.2015827,0.6176112
"LOUDUN, 86200, France",47.0102263,0.081826
"MARSILLY, 17137, France",46.231389,-1.136667
"TAILLAN, 33320, France",44.9044049,-0.6693402
"TRÉMOLAT, 24510, France",44.8757653,0.8314831
"SALLEBOEUF, 33370, France",44.8433337,-0.396393
"MER, 17420, France",,
"SAINT, 40990, France",43.7222216,-1.0546641
"VILLEFRANCHE, 69400, France",43.4244499,0.7280492
"CHATELAILLON, 17340, France",46.0738633,-1.0903991
"ÉTAULES, 17750, France",45.7340308,-1.0996037
"JALLES, 33160, France",44.8958887,-0.7170764
"ESTÉZARGUES, 30390, France",43.9566937,4.636711
"CROUTELLE, 86240, France",46.535731,0.2867513
"PARENTIS, 40160, France",44.3508886,-1.0691145
"VOUNEUIL, 86580, France",46.573287,0.2729321
"CÉRONS, 33720, France",44.6316828,-0.3349069
"ROCHEGUDE, 26790, France",44.2487869,4.8298236
"BAYON, 33710, France",48.4773983,6.3147222
"SAINT, 64500, France",43.3858011,-1.6611208
"CASTELNAU, 34170, France",43.58041,-0.02933
"SAINT, 34980, France",43.6833509,3.84627
"MURVIEL, 34570, France",43.6041462,3.7368314
"NÎMES, 30900, France",43.8374249,4.3600687
"GRANDE, 34280, France",43.5629488,4.0482784
"SAINT, 34130, France",43.6365403,3.9658718
"VENDRES, 34350, France",43.2686109,3.2237054
"LEMAN, 74200, France",46.3557621,6.4271473
"SAINT, 34725, France",43.6941515,3.4707645
"PORTIRAGNES, 34420, France",43.3036,3.33477
"CASTRIES, 34160, France",43.6779101,3.9868904
"MONTPELLIER, 34080, France",43.6112422,3.8767337
"BEAUCAIRE, 30300, France",43.8085436,4.6392648
"ESCALQUENS, 31750, France",43.51833,1.5620474
"RAMONVILLE, 31520, France",43.5390415,1.4783028
"POUSSAN, 34560, France",43.4886565,3.670466
"VENDARGUES, 34740, France",43.6568263,3.9687448
"GARONS, 30128, France",43.7694841,4.4268453
"CALVISSON, 30420, France",43.7853458,4.1900505
"CLAPIERS, 34830, France",43.6567216,3.8868606
"AIMARGUES, 30470, France",43.6848937,4.2095434
"TOULOUSE, 31100, France",,
"SAINT, 34430, France",43.7039689,3.8019983
"FENOUILLET, 31150, France",43.6788559,1.3912065
"TOULOUSE, 31000, France",,
"ÈME, 13008, France",44.205708,4.7290019
"BÉZIERS, 34500, France",43.3426562,3.2131307
"UZÈS, 30700, France",44.0121279,4.4196718
"SAINT, 38300, France",,
"TOULOUSE, 31500, France",43.6114306,1.4542101
"ANGLES, 66210, France",43.5641169,2.5604934
"BARCARES, 66420, France",42.7946794,3.0335243
"BEZIERS, 34500, France",43.3426562,3.2131307
"TOULOUSE, 31400, France",,
"AUZEVILLE, 31320, France",43.5292199,1.4829226
"ÈME, 69006, France",44.205708,4.7290019
"AX, 9110, France",42.7193011,1.83784
"ARGELÈS, 66700, France",42.5476734,3.0253613
"ANTIBES, 6600, France",43.5812868,7.1262071
"TOULOUSE, 31300, France",,
"NÎMES, 30000, France",43.8374249,4.3600687
"COLLIOURE, 66190, France",42.52505,3.0831554
"POMPERTUZAT, 31450, France",43.4892515,1.5144103
"SOULAN, 65170, France",42.8303356,0.2948106
"MER, 66700, France",,
"AGDE, 34300, France",43.3124696,3.4707789
"SAINT, 66750, France",42.615141,3.012875
"SAINT, 83440, France",43.5978477,6.8313392
"TOURNEFEUILLE, 31170, France",43.5832062,1.3460025
"MONTPELLIER, 34070, France",43.6112422,3.8767337
"COLOMBIERS, 34440, France",43.3141,3.13966
"CANET, 66140, France",42.704359,3.0105105
"SAINT, 31650, France",,
"SERVIAN, 34290, France",43.427043,3.2983696
"GIGEAN, 34770, France",43.5008343,3.7108476
"SAINT, 74160, France",,
"SAINT, 66240, France",42.7116006,2.8542566
"GRAU, 30240, France",43.5360061,4.1371755
"AUCAMVILLE, 31140, France",43.6680803,1.4291682
"COURNONTERRAL, 34660, France",43.557935,3.7188857
"SAINT, 42400, France",45.4723695,4.5170182
"MAUGUIO, 34130, France",43.6154825,4.0098366
"LATTES, 34970, France",43.5653993,3.9017114
"SÉGNY, 1170, France",46.2964559,6.0738412
"CERBÈRE, 66290, France",42.4412951,3.1646952
"AGNE, 31520, France",43.5460533,1.4749101
"DÉCINES, 69150, France",45.773606,4.9633314
"BALMA, 31130, France",43.6096587,1.4980089
"MONTPELLIER, 34090, France",43.6112422,3.8767337
"VALRAS, 34350, France",43.2496196,3.29192
"ÈME, 13009, France",44.205708,4.7290019
"SAINT, 81240, France",,
"BLAGNAC, 31700, France",43.6343476,1.3986403
"NARBONNE, 11100, France",43.1837757,3.0041906
"GAUDENS, 31800, France",43.1077682,0.7247218
"PIGNAN, 34570, France",43.5823652,3.7622591
"BOULVE, 46800, France",44.4216678,1.1401247
"SÉRIGNAN, 34410, France",43.2830736,3.2798682
"CANNES, 6400, France",43.5515198,7.0134418
"MONTASTRUC, 31340, France",43.7170378,1.591173
"FRANCOULÈS, 46090, France",44.5427963,1.4893838
"PORT, 66660, France",46.1635975,5.5710285
"PUY, 46700, France",,
"LABARTHE, 31860, France",43.4524351,1.4005078
"ROQUETTES, 31120, France",43.499511,1.3653644
"VILLENEUVE, 30400, France",,
"MURET, 31600, France",43.4599858,1.3262332
"CLARENSAC, 30870, France",43.8266904,4.2176541
"SANARY, 83110, France",43.1177238,5.8008839
"COLOMIERS, 31770, France",43.6112476,1.3367443
"LAUNAGUET, 31140, France",43.6757142,1.4544605
"PORTET, 31120, France",43.5783374,-0.1843276
"FOURQUES, 66300, France",42.5829759,2.7800389
"CÉRET, 66400, France",42.485804,2.7488069
"MÈZE, 34140, France",43.4245985,3.5988383
"BEAUCET, 84210, France",43.9829974,5.1188615
"L, 31240, France",43.6359205,1.4933721
"NICE, 6000, France",,
"VEDAS, 34430, France",43.5751791,3.8264197
"MARSEILLAN, 34340, France",43.3567775,3.5280516
"BARCARÈS, 66420, France",42.7946794,3.0335243
"LANTON, 33138, France",44.7035574,-1.0360314
"CASTANET, 31320, France",43.517214,1.4980801
"SAINT, 30220, France",,
"CORNEBARRIEU, 31700, France",43.6479976,1.3225828
"SETE, 34200, France",43.4014434,3.6959771
"LACOSTE, 84480, France",43.8318965,5.2728505
"PINS, 31860, France",,
"LACABARÈDE, 81240, France",43.4703,2.58096
"MORMOIRON, 84570, France",44.0674373,5.183249
"ROUSSILLON, 66140, France",45.3735991,4.8124049
"PLAGE, 66750, France",42.6293344,3.0312099
"BANYULS, 66650, France",42.4794084,3.1275893
"SUSSARGUES, 34160, France",43.7131593,4.003973
"SAINT, 81370, France",43.775284,1.6803708
"MONDONVILLE, 31700, France",43.6710689,1.2879155
"SALON, 13300, France",43.6390736,5.0884425
"ROI, 30240, France",,
"CYPRIEN, 66750, France",42.6176479,3.0043728
"LANGLADE, 30980, France",43.8043,4.2506218
"SAMOËNS, 74340, France",46.0834066,6.7269485
"MER, 66650, France",,
"CASTELNAUDARY, 11400, France",43.3192021,1.9533495
"VIAS, 34450, France",43.3107683,3.4201599
"LOUDENVIELLE, 65510, France",42.7507567,0.4327564
"PIBRAC, 31820, France",43.6189112,1.2837373
"NICE, 6200, France",43.7009358,7.2683912
"RAPHAEL, 83700, France",43.4227841,6.7702261
"JONQUIÈRES, 30300, France",49.3899096,2.730011
"BANDOL, 83150, France",43.1357717,5.7523647
"GILLES, 31880, France",43.5774255,1.2725705
"CORCY, 1390, France",49.2523955,3.2107619
"CASTRES, 81100, France",43.6053809,2.2411289
"BRUGUIÈRES, 31150, France",43.7277106,1.411126
"PLAGE, 17340, France",,
"LAUDUN, 30290, France",44.104827,4.6557523
"LANSARGUES, 34130, France",43.6508831,4.0727267
"JUVIGNAC, 34990, France",43.6140784,3.8101646
"CASTELMAUROU, 31180, France",43.6773626,1.5324991
"CHARBONNIÈRES, 69260, France",45.7821067,4.7358905
"D, 34300, France",,
"AUZONNET, 30960, France",44.2419728,4.111441
"UCHAUD, 30620, France",43.7572,4.26861
"LACROIX, 31120, France",43.5028723,1.4116079
"PUIMISSON, 34480, France",43.4395,3.2102
"DRAGUIGNAN, 83300, France",43.5374662,6.4627333
"ROQUEMAURE, 30150, France",44.0523514,4.7788273
"ROQUES, 31120, France",43.5109039,1.3755068
"GAGNAC, 31150, France",43.6981454,1.374462
"MONTFRIN, 30490, France",43.8765181,4.5911803
"CORDON, 74700, France",45.9221674,6.6105436
"FALLAVIER, 38070, France",45.6314982,5.1106322
"VETRAZ, 74100, France",46.1740855,6.2581682
"CLERMONT, 63000, France",49.3780921,2.4141907
"AIX, 73100, France",45.6886292,5.9146362
"VIENNE, 38200, France",45.52524,4.87477
"MORZINE, 74110, France",46.1799561,6.7091057
"ÈME, 69003, France",44.205708,4.7290019
"GRASSE, 6130, France",43.6589011,6.9239103
"BEAUMONT, 74160, France",46.1031105,6.1192098
"GUYON, 63140, France",45.9205,3.06111
"REIGNIER, 74930, France",46.1255781,6.2674954
"TERNAY, 69360, France",45.6066341,4.8088144
"COURNON, 63800, France",45.7392306,3.1962804
"VENISSIEUX, 69200, France",45.6977109,4.8855966
"GIGNAC, 34150, France",43.6522859,3.5512018
"PIERRE, 69310, France",45.701873,4.8421729
"VÉNISSIEUX, 69200, France",45.6977109,4.8855966
"GIVORS, 69700, France",45.5844238,4.7696529
"MONTEUX, 84170, France",44.0349281,4.9968733
"YVOIRE, 74140, France",46.3694186,6.3272859
"SAINT, 74140, France",46.2692348,6.2565696
"GERZAT, 63360, France",45.8250404,3.1435185
"OINGT, 69620, France",45.9488142,4.582846
"ÈME, 69009, France",44.205708,4.7290019
"PERRIGNIER, 74550, France",46.3044117,6.4418109
"ANDRÉZIEUX, 42160, France",45.5217037,4.254834
"SAINT, 42100, France",45.4301732,4.4210978
"ANNECY, 74600, France",45.8992348,6.1288847
"SAINT, 42230, France",45.4461684,4.2598078
"RILLIEUX, 69140, France",45.823514,4.8994366
"MOIDIEU, 38440, France",45.5109,5.01604
"RUMILLY, 74150, France",45.8672156,5.9425679
"SCIEZ, 74140, France",46.331359,6.3752502
"GETS, 74260, France",46.1550977,6.6633354
"ARCHAMPS, 74160, France",46.1354538,6.1332458
"THONON, 74200, France",46.3731303,6.4779448
"SAINT, 69800, France",45.6948082,4.966937
"GENAS, 69740, France",45.7330585,4.9965605
"BONS, 74890, France",46.264918,6.3702817
"VAULX, 69120, France",50.2673619,2.0964942
"ANTHY, 74200, France",46.3557621,6.4271473
"ORNAISONS, 11200, France",43.1847,2.84085
"MEYZIEU, 69330, France",45.7764637,5.0044767
"ÈME, 69004, France",44.205708,4.7290019
"PONT, 38230, France",47.1777278,5.3147014
"D, 38750, France",,
"ALPES, 38860, France",45.0099949,6.1237609
"ER, 69001, France",42.4406621,2.0328526
"PUSIGNAN, 69330, France",45.7561,5.06785
"MOZAC, 63200, France",45.8940829,3.0953843
"AURILLAC, 15000, France",44.9285441,2.4433101
"AIX, 13100, France",50.4912838,3.2907097
"SAINT, 74170, France",45.891956,6.7110427
"MEYLAN, 38240, France",45.2097372,5.778361
"D, 74300, France",46.0319945,6.6312555
"THOIRY, 1710, France",46.236193,5.9804153
"VAULX, 38090, France",50.2673619,2.0964942
"SOUDAIN, 38110, France",45.5681,5.43211
"ÈME, 69002, France",44.205708,4.7290019
"BIOT, 6410, France",43.6270041,7.0989546
"BOURGOIN, 38300, France",45.5860438,5.2772265
"COLLONGES, 74160, France",46.1376178,5.903413
"TOUSSUIRE, 73300, France",45.2470875,6.3024019
"MENUIRES, 73440, France",45.3218079,6.5451333
"SAINT, 38160, France",45.1508695,5.3236275
"FAVERGES, 74210, France",45.7525572,6.291683
"VALENCE, 26000, France",44.9332277,4.8920811
"TULLINS, 38210, France",45.2977714,5.4829748
"ROQUEFORT, 6330, France",43.7589265,0.6032061
"ECHIROLLES, 38130, France",45.1481694,5.718687
"COGNIN, 73160, France",45.5587047,5.8933927
"ALLEMOND, 38114, France",45.1310892,6.0369453
"BASSENS, 73000, France",45.5816027,5.9408017
"CROLLES, 38920, France",45.2845907,5.8839432
"BAINS, 74200, France",46.3731303,6.4779448
"SEYNE, 83500, France",43.1007714,5.8788948
"BAINS, 74170, France",45.8928549,6.7113338
"SALES, 74380, France",46.1876567,6.2919875
"RUFFIEUX, 73310, France",45.8492857,5.8432118
"VERPILLIERE, 38290, France",45.632836,5.1473108
"LOIRE, 69700, France",,
"ORNEX, 1210, France",46.2717214,6.0971755
"DOUVAINE, 74140, France",46.3059806,6.3024961
"FERNEY, 1210, France",46.2567057,6.1096409
"VERPILLIÈRE, 38290, France",45.632836,5.1473108
"SALLAZ, 74250, France",46.147716,6.4104203
"AMBÉRIEU, 1500, France",45.9584309,5.3595099
"ROCHE, 74800, France",,
"BARBERAZ, 73000, France",45.5582393,5.9421274
"MERIBEL, 73550, France",45.4079499,6.5773335
"MEGÈVE, 74120, France",45.8567089,6.617932
"NOTRE, 73590, France",45.8084045,6.5171548
"SAINT, 13210, France",43.7766182,4.8353295
"TARENTAISE, 73210, France",45.3732288,4.4887322
"ALLUES, 73550, France",45.4307976,6.5563846
"ARNAS, 69400, France",46.0235247,4.7071167
"SAINT, 69450, France",45.8146528,4.8177971
"MOIRANS, 38430, France",45.3262643,5.5647186
"SAINT, 69230, France",45.7017591,4.8043258
"AVANCHERS, 73260, France",45.4781616,6.4562373
"FLAINE, 74300, France",46.0068544,6.6903664
"GRAND, 74450, France",48.386104,5.4866253
"PLAGNE, 73210, France",43.1571229,1.0602138
"VIUZ, 74250, France",46.147716,6.4104203
"ARTAS, 38440, France",45.5355078,5.1654902
"CHAMROUSSE, 38410, France",45.1108068,5.8748399
"ÈME, 13007, France",44.205708,4.7290019
"ÉVIAN, 74500, France",46.400979,6.5897931
"ARMOY, 74200, France",46.3479165,6.5195025
"NOTRE, 38220, France",,
"GIERES, 38610, France",45.1798245,5.7904194
"D, 38400, France",,
"VILLARD, 73270, France",46.2167418,6.4393324
"MANIGOD, 74230, France",45.8609621,6.3697041
"CONTAMINES, 74170, France",45.8210905,6.72751
"OLLIÈRES, 74370, France",43.4830755,5.8291
"CRANVES, 74380, France",46.1876567,6.2919875
"BRON, 69500, France",45.7337532,4.9092352
"CRAPONNE, 69290, France",45.743476,4.7231057
"JARDIN, 38200, France",45.4963988,4.9078121
"SAINT, 42000, France",45.4436149,4.3996073
"PRÉVESSIN, 1280, France",46.2542548,6.0807729
"TASSIN, 69160, France",45.7617013,4.7586206
"SAINT, 69720, France",45.6954105,5.0853611
"CHASSIEU, 69680, France",45.7422756,4.9681796
"DORE, 63240, France",45.5749966,2.8094117
"CHÂTEL, 74390, France",46.2671987,6.8412678
"MARCY, 69480, France",45.915058,4.6787244
"ÉCULLY, 69130, France",45.7754498,4.7785644
"PONT, 38800, France",47.1777278,5.3147014
"CEBAZAT, 63118, France",45.8305758,3.1000933
"CAGNES, 6800, France",44.3092145,1.2723653
"GAP, 5000, France",,
"CHALLES, 73190, France",47.9303027,0.4138759
"CLERMONT, 63100, France",49.3780921,2.4141907
"COUBLEVIE, 38500, France",45.3558251,5.616002
"PUGET, 83480, France",43.7551285,5.2695519
"TRÉVOUX, 1600, France",45.9412075,4.7734565
"FLAYOSC, 83780, France",43.5340489,6.3980138
"NICE, 6300, France",43.7009358,7.2683912
"NICE, 6100, France",43.7009358,7.2683912
"BORMES, 83230, France",43.1506968,6.3419285
"AMBILLY, 74100, France",46.1960316,6.2224568
"ÈME, 13013, France",44.205708,4.7290019
"MENTON, 6500, France",43.7753495,7.5029213
"PORT, 13110, France",46.1635975,5.5710285
"CARROS, 6510, France",43.7846,7.18785
"CIOTAT, 13600, France",43.1758591,5.6062495
"MARIGNANE, 13700, France",43.4162729,5.2146275
"AUBAGNE, 13400, France",43.2924385,5.5703031
"TOULON, 83100, France",43.1257311,5.9304919
"MÉNERBES, 84560, France",43.8321696,5.206383
"ARRONDISSEMENT, 13015, France",43.3531559,5.3647655
"ÈME, 13006, France",44.205708,4.7290019
"VENCE, 6140, France",43.7224167,7.1116845
"VILLENEUVE, 6270, France",45.0835468,-0.6280356
"FRÉJUS, 83600, France",43.4319194,6.7329012
"MARTIGUES, 13500, France",43.3929443,5.0256298
"BEAULON, 3230, France",46.6016862,3.6728539
"ER, 13001, France",,
"ROQUEBRUNE, 6190, France",43.7201447,0.2998887
"VITROLLES, 13127, France",43.4593696,5.2482643
"LAMBESC, 13410, France",43.6541997,5.2620916
"FERRAND, 63000, France",45.7785851,3.1009334
"MARSEILLE, 13015, France",43.2961743,5.3699525
"ÈME, 13010, France",44.205708,4.7290019
"LONDE, 83250, France",43.1381313,6.2355346
"ÈME, 13004, France",44.205708,4.7290019
"CEYRESTE, 13600, France",43.2183769,5.6391975
"SÉNAS, 13560, France",43.7446686,5.078624
"SAINT, 83270, France",43.1855131,5.7038084
"AIX, 13290, France",50.4912838,3.2907097
"JALIONAS, 38460, France",45.7600817,5.2385887
"AIX, 13090, France",50.4912838,3.2907097
"ÈME, 13002, France",44.205708,4.7290019
"GIGNAC, 13180, France",43.6522859,3.5512018
"ÈME, 13012, France",44.205708,4.7290019
"SAINT, 26320, France",44.9699524,4.9574049
"AVIGNON, 84000, France",43.9492493,4.8059012
"FRÉJUS, 83370, France",43.4330308,6.7360182
"ISTRES, 13800, France",43.5154083,4.980413
"TOULON, 83000, France",43.1257311,5.9304919
"ÈME, 13011, France",44.205708,4.7290019
"MIRAMAS, 13140, France",43.582733,5.0025809
"MEYREUIL, 13590, France",43.4867359,5.4952155
"ANTIBES, 6160, France",43.5812868,7.1262071
"CARCÈS, 83570, France",43.4760038,6.1826133
"SAINTE, 69110, France",45.4401467,4.3873058
"LOZANNE, 69380, France",45.8563065,4.683398
"SAUSSET, 13960, France",43.332048,5.1094441
"BOUC, 13320, France",43.4511819,5.4127848
"BEAULIEU, 6310, France",47.7277699,4.7269377
"CAP, 6320, France",,
"SAINT, 6700, France",44.8100795,-0.5982853
"ÈME, 13005, France",44.205708,4.7290019
"SAINT, 83700, France",44.8100795,-0.5982853
"LANÇON, 13680, France",42.8854662,0.3663249
"SAINTE, 83120, France",45.4401467,4.3873058
"SAINT, 83530, France",44.8100795,-0.5982853
"BRIANCON, 5100, France",44.8984037,6.6436313
"NERTHE, 13180, France",43.3887665,5.2329106
"BEAUSSET, 83330, France",43.1988273,5.8007195
"ÈZE, 6360, France",43.7288923,7.3620705
"OLIVIERS, 13580, France",43.5511541,5.1869179
"HYERES, 83400, France",43.1202573,6.1301614
"GOLFE, 6220, France",43.0765356,5.880018
"VALLAURIS, 6220, France",43.5761001,7.05859
"ISSAMBRES, 83380, France",43.3469667,6.7125179
"TROPEZ, 83990, France",43.2727191,6.6405225
"PINS, 6160, France",,
"GARDE, 83680, France",43.3196859,6.4687979
"SARRIANS, 84260, France",44.0831417,4.9717219
"VALETTE, 83160, France",45.2673327,2.6029063
"MONTFAVET, 84140, France",43.9326281,4.8739435
"PROVENCE, 13100, France",,
"PÉGOMAS, 6580, France",43.5928477,6.9306639
"ORANGE, 84100, France",44.1371311,4.8078783
"VAR, 6700, France",43.4173551,6.2664637
"MAUSSANE, 13520, France",43.7210449,4.8055115
"ROQUEVAIRE, 13360, France",43.3492766,5.6046147
"BUISSE, 38500, France",45.3333031,5.6203141
"ÉGUILLES, 13510, France",43.5687248,5.3543957
"MER, 83270, France",,
"GORDES, 84220, France",43.9110641,5.2002043
"BERRE, 13130, France",43.5010572,5.1789222
"SAINT, 74490, France",46.18901,6.5060535
"AIX, 13080, France",50.4912838,3.2907097
"AIX, 13540, France",50.4912838,3.2907097
"THOLONET, 13100, France",43.5217232,5.5120384
"GARDANNE, 13120, France",43.455613,5.4710661
"MALLEMORT, 13370, France",43.7314716,5.1802855
"HYÈRES, 83400, France",43.1202573,6.1301614
"APREMONT, 73190, France",45.5132,5.95937
"PAJAY, 38260, France",45.364,5.14113
"NAPOULE, 6210, France",42.5535203,3.040981
"CARNOULES, 83660, France",43.3024863,6.1898612
"ROQUEBRUNE, 83380, France",44.6286853,0.0226196
"ARLES, 13200, France",43.6848044,4.6322785
"PROVENCE, 13090, France",,
"TIGNIEU, 38230, France",45.7350269,5.1864707
"PROPRIANO, 20110, France",41.6510248,8.897321
"PORTO, 20137, France",41.5911382,9.2794469
"AJACCIO, 20090, France",41.9263991,8.7376029
"FURIANI, 20600, France",42.6584811,9.4151285
"MORIANI, 20230, France",42.3842071,9.5299084
"LUCCIANA, 20290, France",42.5459392,9.4175597
"BONIFACIO, 20169, France",41.3878259,9.1606179
"FIGARI, 20114, France",41.4874599,9.1282853
"CALENZANA, 20214, France",42.5083711,8.8552855
"CALVI, 20260, France",42.5677079,8.7590528
"LOTA, 20200, France",42.7363431,9.4377499
"ORNETO, 20230, France",42.3992462,9.4807372
"BELGODERE, 20226, France",42.5858693,9.0175375
"ALBITRECCIA, 20128, France",41.8624874,8.9421289
"OLETTA, 20232, France",42.6320692,9.3579044
"MONTEGROSSO, 20214, France",42.5443549,8.8534064
"SISCO, 20233, France",42.8109997,9.4885168
"LUMIO, 20260, France",42.5790571,8.833802
"NICOLAO, 20230, France",42.3706486,9.5000839
"BASTIA, 20200, France",42.6993979,9.4509187
"LECCI, 20137, France",41.6793732,9.3177979
"VECCHIO, 20137, France",41.5911382,9.2794469
"SPELONCATO, 20226, France",42.5616859,8.9811106
"CENTURI, 20238, France",42.9605846,9.3682432
"FIUMORBO, 20243, France",42.0020919,9.2816237
"AREGNO, 20220, France",42.5806925,8.8944264
"ZONZA, 20124, France",41.7493663,9.1706374
"ZONZA, 20144, France",41.7493663,9.1706374
"AJACCIO, 20000, France",41.9275104,8.739043
"VECCHIO, 20144, France",41.6998072,9.3475783
"CORTE, 20250, France",42.3052904,9.1511935
"FLORENT, 20217, France",42.681295,9.3024991
"SARTENE, 20100, France",41.6208848,8.9721882
"AFA, 20167, France",41.9838088,8.7966629
"CORBARA, 20220, France",42.613746,8.9061013
"MONTICELLO, 20220, France",42.617236,8.9546269
"VECCHI, 20144, France",42.4903163,9.3655885
"BALAGNA, 20220, France",42.603921,8.9294254
"MONTE, 20290, France",42.4687171,9.3916453
"AURIOL, 13390, France",43.3688436,5.6298611
"CATERI, 20225, France",42.5718197,8.8910994
"PORTICCIO, 20166, France",41.8893913,8.8033271
"MEZZANA, 20230, France",42.4011306,9.4900095
"MURO, 20225, France",42.5459792,8.9147021
"PONTET, 84130, France",43.9621858,4.8602588
"TALASANI, 20230, France",42.4082429,9.4799646
"ROUSSE, 20220, France",42.6344797,8.9381367
"GHISONACCIA, 20240, France",42.0149385,9.40536
"PRUNETE, 20221, France",42.321301,9.5445737
"BRAVONE, 20230, France",42.2006185,9.5371279
"SANTA, 20230, France",47.7551188,7.0534664
"POGGIO, 20230, France",42.3981377,9.4955322
"PRUNELLI, 20243, France",42.0105024,9.3246227
"PRUGNA, 20128, France",41.8645383,8.9680886
"ZILIA, 20214, France",42.5303819,8.9008724
"SOLARO, 20240, France",41.9044965,9.3282868
"CALDARELLO, 20131, France",41.4842809,9.0619531
"PRUGNA, 20166, France",41.8645383,8.9680886
"OLMETO, 20113, France",41.7169637,8.9178271
"OCCHIATANA, 20226, France",42.5745881,9.009307
"CARCOPINO, 20167, France",42.0240817,8.8379019
"SOLENZARA, 20145, France",41.8562794,9.398569
"SOTTA, 20146, France",41.5445735,9.1952238
"AVAPESSA, 20225, France",42.5610612,8.8950755
"FREJUS, 83600, France",43.4319194,6.7329012
"ASCO, 20276, France",42.4542774,9.0341777
"VELLERON, 84740, France",43.9562757,5.0292193
"SAINTE, 20144, France",45.4401467,4.3873058
"PEYROLLES, 13860, France",42.9598383,2.3173623
"L, 20220, France",42.6216412,8.9351258
"BASTIA, 20600, France",42.6993979,9.4509187
"BORGO, 20290, France",42.5541524,9.4277361
"CANAVAGGIA, 20235, France",42.5035786,9.2626552
"SAN, 20200, France",42.7364479,9.4381425
"ALERIA, 20270, France",42.1135718,9.5144732
"OCANA, 20117, France",41.9603325,8.9347337
"LINGUIZZETTA, 20230, France",42.26369,9.47299
"CORTICCHIATO, 20167, France",41.9906611,8.9092603
"ALÉRIA, 20270, France",42.1135718,9.5144732
"VENTISERI, 20240, France",41.9431721,9.3331152
"PIETROSELLA, 20166, France",41.8353888,8.8459949
"GIULIANO, 20230, France",42.3148695,9.4932028
"CERVIONE, 20221, France",42.3322737,9.49192
"SICHE, 20190, France",41.8762163,8.9779271
"BASTELICACCIA, 20129, France",41.9329436,8.8362468
"BIGUGLIA, 20620, France",42.6269896,9.4208224
"SAINT, 20217, France",42.6828875,9.3015689
"SANTA, 20200, France",47.7551188,7.0534664
"SARROLA, 20167, France",42.0293479,8.8430096
"BICCHISANO, 20140, France",41.7889461,8.9765753
"CONCA, 20135, France",41.7343259,9.3358428
"CARGESE, 20130, France",42.13436,8.59422
"NOVELLA, 20226, France",42.5850037,9.116641
"PORTO, 20150, France",42.2676535,8.6941493
"PENTA, 20213, France",42.4671285,9.4595153
"CROCE, 20237, France",42.413758,9.3621573
"VESCOVATO, 20215, France",42.4936573,9.4387142
"TOURRETTES, 6140, France",43.6236134,6.7015297
"OLMI, 20259, France",42.5286011,9.0157244
"POGGIO, 20232, France",42.6393436,9.3627374
"GROSSETO, 20166, France",41.8713232,8.9638329
"VILLE, 20200, France",,
"ALBITRECCIA, 20166, France",41.8624874,8.9421289
"CAMBIA, 20244, France",42.3638218,9.2947179
"BASTELICA, 20119, France",42.0016233,9.0494842
"ALATA, 20167, France",41.9768323,8.7433833
"MOCA, 20140, France",41.8051454,9.0112326
"COGNOCOLI, 20123, France",41.8285686,8.9060284
"SAN, 20230, France",42.3954599,9.4417455
"MEZZANA, 20167, France",41.979265,8.8336248
"ASSE, 4270, France",48.322497,-0.0084514
"COTONE, 20221, France",42.3157816,9.4852781
"MOROSAGLIA, 20218, France",42.4368399,9.304545
"SANTA, 20221, France",47.7551188,7.0534664
"ROUET, 13620, France",43.8119467,3.8133382
"COURCOURONNES, 91000, France",48.622557,2.4118939
"LAYE, 78100, France",48.9356047,2.0917743
"BAINS, 95880, France",,
"NEUILLY, 93330, France",48.9321383,1.4209125
"SEINE, 94200, France",,
"BESSANCOURT, 95550, France",49.0372777,2.2136286
"CERGY, 95000, France",49.0527528,2.0388736
"FORET, 78125, France",,
"VIRY, 91170, France",46.472464,4.3343506
"HORNOY, 80640, France",49.8540198,1.9093606
"SAINT, 80610, France",50.0400881,2.1177931
"NEUVILLE, 60510, France",49.4049967,2.3250154
"HAILLES, 80440, France",49.8047239,2.4391332
"BEAUCAMPS, 80430, France",49.8433073,1.7801064
"BRAY, 80340, France",49.9393722,2.7179704
"LÉVIGNEN, 60800, France",49.197603,2.9150805
"VILLE, 60560, France",49.1312314,2.5137195
"ASNIERES, 92600, France",48.9105948,2.2890454
"DAOURS, 80800, France",49.9021194,2.4479053
"GRUNY, 80700, France",49.7291954,2.8210712
"MOLLIENS, 80540, France",49.8837968,2.0217764
"NAOURS, 80260, France",50.0341443,2.2748218
"AMIENS, 80090, France",49.8941708,2.2956951
"HERMAVILLE, 62690, France",50.323391,2.5835502
"DREUIL, 80470, France",49.9141154,2.2335005
"ROYE, 80700, France",49.6986186,2.7930755
"MÉRICOURT, 80640, France",50.4015803,2.8664217
"NOIRÉMONT, 60480, France",49.5505924,2.211256
"MONCEAUX, 60220, France",49.3196007,2.5510617
"VENDIERES, 2540, France",48.8715182,3.4463251
"OISEMONT, 80140, France",49.956082,1.7649365
"ACHEUX, 80560, France",50.0728994,2.5306202
"OISE, 60460, France",49.4120546,2.4064878
"NIERGNIES, 59400, France",50.1472813,3.2576836
"MOREUIL, 80110, France",49.7705466,2.486822
"AILLY, 80470, France",49.928085,2.1980997
"METZ, 57950, France",49.1196964,6.1763552
"SOISSONS, 2200, France",49.3837621,3.327613
"AŸ, 51160, France",49.0460053,4.0387323
"VILLEZ, 27950, France",49.1112784,1.3732251
"CORMICY, 51220, France",49.3703024,3.8954464
"MEREAU, 18120, France",47.1788,2.0513
"SAINT, 80470, France",49.915908,2.2299068
"BRENOUILLE, 60870, France",49.302275,2.5283108
"VAL, 27120, France",49.0743529,1.3542803
"ÉVREUX, 27000, France",49.0268903,1.1510164
"HERRLISHEIM, 68420, France",48.7288855,7.9061317
"GUEUGNON, 71130, France",46.6005232,4.0633825
"BAGNOLET, 93170, France",48.8688199,2.4173658
"GEORGES, 77600, France",,
"MARNE, 94360, France",,
"PIERREFITTE, 93380, France",48.1685245,6.1769105
"GUICHAINVILLE, 27930, France",48.9800436,1.1864378
"CHARENTON, 94220, France",48.8198479,2.4159508
"PLESSIS, 91220, France",48.6116007,2.3256213
"CAMBRAI, 59400, France",50.1757546,3.2346145
"LOUVRES, 95380, France",49.0449139,2.5096751
"LAGNY, 77400, France",49.6138706,2.9174984
"FRANCONVILLE, 95130, France",48.986025,2.2303498
"SEINE, 93400, France",48.911729,2.334267
"FORET, 27480, France",,
"COUPVRAY, 77700, France",48.8918983,2.7948137
"GOMETZ, 91400, France",48.6718036,2.1250543
"BURES, 91440, France",48.6972179,2.1632719
"ARCUEIL, 94110, France",48.8064996,2.3366502
"DAMMARIE, 77190, France",48.5150876,2.6347018
"MONTSOULT, 95560, France",49.0704484,2.312001
"MAFFLIERS, 95560, France",49.0784276,2.3124785
"BALLANCOURT, 91610, France",48.5321637,2.3711049
"BONDY, 93140, France",48.9031,2.48291
"MALMAISON, 92500, France",48.87778,2.1802832
"FORET, 95350, France",48.9973824,2.3568948
"TOURVILLE, 50200, France",49.0457209,-1.5426992
"SAINT, 50240, France",48.5643797,-1.3276944
"NONANCOURT, 27320, France",48.7709287,1.1977498
"L, 14130, France",49.2508019,0.1327237
"LESSAY, 50430, France",49.2132849,-1.5202954
"PÉRIERS, 50190, France",49.1870906,-1.4100219
"ANGOVILLE, 50430, France",48.943877,-0.3735639
"QUIBOU, 50750, France",49.0684104,-1.200194
"MUIDS, 27430, France",49.2228671,1.2880007
"FLEURY, 27380, France",50.42199,2.25386
"ARROMANCHES, 14117, France",49.3369603,-0.6221294
"AMFREVILLE, 14860, France",49.2479604,-0.2345844
"MOUTIERS, 61110, France",49.2332157,5.9669258
"PERCHE, 61110, France",48.4768396,0.8456919
"VEXIN, 27630, France",49.1858623,1.6107751
"PETIT, 76140, France",49.4299584,1.0704247
"NOISY, 77123, France",48.3676417,2.5072908
"JOUY, 27120, France",49.0661914,1.2903665
"DIEPPE, 76370, France",49.9246182,1.0791444
"LIMOURS, 91470, France",48.6458221,2.0770987
"BONSECOURS, 76240, France",49.4222278,1.1239654
"AUDEMER, 27500, France",49.3273029,0.5153631
"COEX, 85220, France",46.6986111,-1.7594444
"SAINT, 85520, France",46.415769,-1.5478581
"L, 35590, France",48.1180941,-1.6876429
"SAINT, 35250, France",48.105314,-1.6673866
"LANDERNEAU, 29800, France",48.4514803,-4.2557901
"LOCMARIA, 29280, France",48.3747011,-4.6444051
"CHAPELLE, 35590, France",,
"NIVILLAC, 56130, France",47.5330834,-2.2829889
"HERMITAGE, 35590, France",48.1243,-1.8183
"SULNIAC, 56250, France",47.6759445,-2.571495
"SEVIGNE, 35510, France",48.1197799,-1.6038829
"ALLINEUC, 22460, France",48.310924,-2.872466
"BRUZ, 35170, France",48.0245814,-1.7471629
"CHAMP, 56390, France",45.2789481,5.9308898
"PLUMERGAT, 56400, France",47.7422676,-2.9163053
"ETABLES, 22680, France",48.6266514,-2.8400063
"CHARTRES, 35131, France",48.4438601,1.4881434
"CHÂTEAUGIRON, 35410, France",48.0423764,-1.500912
"PLOUIGNEAU, 29610, France",48.567703,-3.7011457
"TOUR, 56370, France",,
"BRETAGNE, 35131, France",,
"SAINTE, 85210, France",45.4401467,4.3873058
"MAËL, 22340, France",48.2847012,-3.4236555
"BAINS, 35600, France",47.7043242,-2.0720346
"ARRADON, 56610, France",47.62798,-2.8229152
"PLOUHINEC, 56680, France",47.6975924,-3.2510247
"PORGE, 33680, France",44.8727944,-1.0927165
"NOYERS, 41140, France",47.6957055,3.9955476
"SAINT, 86310, France",46.564767,0.8660028
"SAINTE, 17740, France",45.4401467,4.3873058
"SIGISMOND, 85420, France",46.3511111,-0.6888889
"HAUTE, 44115, France",,
"HERIC, 44810, France",47.4144202,-1.6523209
"ROCHEFORT, 49190, France",45.9366592,-0.9616399
"SAINTE, 85150, France",45.4401467,4.3873058
"CHAMPAGNÉ, 85450, France",,
"COMTE, 85200, France",,
"JARD, 85520, France",,
"SAINT, 85120, France",46.6468029,-0.7334027
"L, 85350, France",46.7170388,-2.39082
"QUIMPERLE, 29300, France",47.8692882,-3.5505644
"GUÉRINIÈRE, 85680, France",46.9680556,-2.2302778
"SAINT, 85440, France",46.467516,-1.6192324
"SAINT, 44270, France",46.9320487,-1.7428647
"MEILLERAYE, 44520, France",47.5590149,-1.4021731
"PINS, 44250, France",,
"LONGEVILLE, 85560, France",47.0298158,6.2259715
"VALLET, 44330, France",47.1610036,-1.2657431
"ANDARD, 49800, France",47.4829969,-0.3856131
"SAINT, 77400, France",48.8455927,2.4249063
"LISSIEU, 69380, France",45.8652176,4.742215
"CIBOURE, 64500, France",43.3844003,-1.6676238
"VIF, 38450, France",45.0554868,5.669033
"BOUGIVAL, 78380, France",48.8642975,2.1377696
"MEYSSIEZ, 38440, France",45.4700287,5.05495
"CROSNE, 91560, France",48.72046,2.4645591
"ORGE, 91600, France",48.6794572,2.3458417
"SEINE, 78670, France",48.9404491,1.9987648
"MYANS, 73800, France",45.5135921,5.9869283
"LONGUEVILLE, 77650, France",48.5144795,3.2473223
"MARMAGNE, 18500, France",47.1018078,2.284738
"SAINT, 37600, France",47.1267656,0.9987196
"NOTRE, 37390, France",,
"REIGNAC, 37310, France",47.2179604,0.9012014
"CLÉRY, 45370, France",47.28802,5.49442
"BRÉTIGNY, 91220, France",48.6068145,2.3019977
"ÉPUISAY, 41360, France",47.9007745,0.9298262
"LÈVES, 28300, France",48.4782477,1.4786967
"VENDÔME, 41100, France",47.7934453,1.0662256
"HERBAULT, 41190, France",47.6032367,1.1395747
"TROUY, 18570, France",47.0088361,2.3565352
"COULOMBS, 28210, France",48.6520318,1.544411
"MEMBROLLE, 37390, France",47.4449038,0.6271357
"AUNEAU, 28700, France",48.4705667,1.7714868
"LANGEAIS, 37130, France",47.3239338,0.4072956
"EPERNON, 28230, France",48.6101745,1.677222
"CHER, 41400, France",47.0248824,2.5753334
"VILLEMOIRIEU, 38460, France",45.719104,5.2271758
"BOISSISE, 77350, France",48.5338939,2.5930441
"GARGES, 95140, France",48.9703841,2.399024
"CHAMPAGNE, 69410, France",45.831944,-0.906667
"ORBEY, 68370, France",48.1272548,7.1622187
"LIMAY, 78520, France",48.9921015,1.7353686
"BONNEVILLE, 74130, France",46.0775797,6.4086189
"CHATILLON, 92320, France",48.7997756,2.2897124
"ECULLY, 69130, France",45.7754498,4.7785644
"OYE, 71610, France",46.3235692,4.191555
"MONTECHEROUX, 25190, France",47.3496097,6.8062962
"DUNG, 25550, France",47.502333,6.7508356
"SAINT, 71350, France",46.947515,4.9085123
"MAICHE, 25120, France",47.2520567,6.800917
"YERRES, 91330, France",48.716811,2.4879753
"MONTAGNE, 97417, France",45.1417,5.19378
"PUISAYE, 89520, France",47.6181326,3.1975937
"MOISSEY, 39290, France",47.1969846,5.5244879
"TILLE, 21560, France",47.3450572,5.1893967
"DOLE, 39100, France",47.0921047,5.4925463
